[{"id": "10848", "name": "", "lat": "12.99521199", "lon": "77.59204678", "stop_dist": "0.00"}, {"id": "2458", "name": "Ashwathnagara Nagashettyhalli", "lat": "13.02679215", "lon": "77.57992293", "stop_dist": "0.00"}, {"id": "2188", "name": "Bandi Reddy Circle", "lat": "12.99136273", "lon": "77.56391660", "stop_dist": "0.00"}, {"id": "1840", "name": "Basaveshwara College Rajajinagara", "lat": "12.99440091", "lon": "77.55274699", "stop_dist": "0.00"}, {"id": "2145", "name": "Bashyam Circle Sadashivanagara", "lat": "13.00631975", "lon": "77.57920263", "stop_dist": "0.00"}, {"id": "10748", "name": "Bombay Dyeing Mattikere", "lat": "13.02493306", "lon": "77.55742215", "stop_dist": "0.00"}, {"id": "588", "name": "Cantonment Railway Station", "lat": "12.99278817", "lon": "77.59495232", "stop_dist": "0.00"}, {"id": "8395", "name": "CBI Mekhri Circle", "lat": "13.02696416", "lon": "77.58592129", "stop_dist": "0.00"}, {"id": "11268", "name": "Chitrapura Mutt", "lat": "13.00566322", "lon": "77.56542653", "stop_dist": "0.00"}, {"id": "9029", "name": "Chowdeshwari Bus Stand JP Park", "lat": "13.03288550", "lon": "77.55434632", "stop_dist": "0.00"}, {"id": "543", "name": "CPRI", "lat": "13.01479223", "lon": "77.57487228", "stop_dist": "0.00"}, {"id": "5754", "name": "CPRI Quarters", "lat": "13.02241119", "lon": "77.57217631", "stop_dist": "0.00"}, {"id": "7363", "name": "CQAL", "lat": "13.01071162", "lon": "77.59170749", "stop_dist": "0.00"}, {"id": "12384", "name": "CS-Income Tax Office Mekhri Circle", "lat": "13.01988689", "lon": "77.58402027", "stop_dist": "0.00"}, {"id": "8974", "name": "CS-Malleshwaram Sai Hot Chips", "lat": "13.00848568", "lon": "77.56983340", "stop_dist": "0.00"}, {"id": "2152", "name": "Dattatreya Temple Malleshwaram", "lat": "12.99892824", "lon": "77.57460858", "stop_dist": "0.00"}, {"id": "2203", "name": "Devaiah Park", "lat": "12.99641110", "lon": "77.56424332", "stop_dist": "0.00"}, {"id": "232", "name": "Devasandra Chikkamaranahalli", "lat": "13.03632413", "lon": "77.56668335", "stop_dist": "0.00"}, {"id": "260", "name": "Divanarapalya Mattikere", "lat": "13.02633291", "lon": "77.56183919", "stop_dist": "0.00"}, {"id": "2220", "name": "East West Public School Subramanyanagara", "lat": "13.00546823", "lon": "77.55647010", "stop_dist": "0.00"}, {"id": "2261", "name": "Forum City Apartment", "lat": "12.99659466", "lon": "77.58808924", "stop_dist": "0.00"}, {"id": "693", "name": "Ganesha Temple Vasantanagara", "lat": "12.99524363", "lon": "77.59213849", "stop_dist": "0.00"}, {"id": "2440", "name": "Gangenahalli Bellary Road", "lat": "13.02337000", "lon": "77.58405012", "stop_dist": "0.00"}, {"id": "6792", "name": "Gayathrinagara H Ghat", "lat": "12.99827763", "lon": "77.55991459", "stop_dist": "0.00"}, {"id": "2457", "name": "Geddalahalli Nagashettahalli", "lat": "13.03071527", "lon": "77.57753142", "stop_dist": "0.00"}, {"id": "257", "name": "Gokula Mattikere", "lat": "13.04122662", "lon": "77.55727222", "stop_dist": "0.00"}, {"id": "491", "name": "Govardhan Talkies", "lat": "13.01999619", "lon": "77.55268998", "stop_dist": "0.00"}, {"id": "4898", "name": "Govt Soap Factory", "lat": "13.01310347", "lon": "77.55432151", "stop_dist": "0.00"}, {"id": "2196", "name": "Harishchandra Ghat", "lat": "12.99688022", "lon": "77.56082339", "stop_dist": "0.00"}, {"id": "503", "name": "Iskcon Temple", "lat": "13.01175164", "lon": "77.55180104", "stop_dist": "0.00"}, {"id": "5756", "name": "ITI Layout New BEL Road", "lat": "13.03392521", "lon": "77.56857544", "stop_dist": "0.00"}, {"id": "5527", "name": "Jayamahal", "lat": "13.00069575", "lon": "77.59468541", "stop_dist": "0.00"}, {"id": "11908", "name": "Jayamahal Extension", "lat": "13.00208674", "lon": "77.59877577", "stop_dist": "0.00"}, {"id": "8302", "name": "JC Nagara", "lat": "13.00498111", "lon": "77.59392500", "stop_dist": "0.00"}, {"id": "9560", "name": "JC Nagara Kabir Ashrama", "lat": "13.00952319", "lon": "77.59463310", "stop_dist": "0.00"}, {"id": "15167", "name": "Kendriya Vidyalaya Malleshwaram", "lat": "13.00915209", "lon": "77.56856471", "stop_dist": "0.00"}, {"id": "11258", "name": "Kirloskar Company Yeshwanthapura", "lat": "13.01455125", "lon": "77.55995214", "stop_dist": "0.00"}, {"id": "2232", "name": "Kodandarama Temple", "lat": "13.00141078", "lon": "77.56073644", "stop_dist": "0.00"}, {"id": "5762", "name": "Kuvempu Circle New BEL Road", "lat": "13.04331876", "lon": "77.56134422", "stop_dist": "0.00"}, {"id": "264", "name": "Link Road Central", "lat": "12.99424589", "lon": "77.57398298", "stop_dist": "0.00"}, {"id": "226", "name": "Malleshwaram 11th Cross", "lat": "13.00292613", "lon": "77.57126014", "stop_dist": "0.00"}, {"id": "8360", "name": "Malleshwaram 13th Cross", "lat": "13.00367964", "lon": "77.56931305", "stop_dist": "0.00"}, {"id": "227", "name": "Malleshwaram 15th Cross", "lat": "13.00512833", "lon": "77.57118500", "stop_dist": "0.00"}, {"id": "420", "name": "Malleshwaram 18th Cross", "lat": "13.00889883", "lon": "77.57105172", "stop_dist": "0.00"}, {"id": "421", "name": "Malleshwaram 18th Cross 8th Main Road", "lat": "13.01000486", "lon": "77.56255973", "stop_dist": "0.00"}, {"id": "263", "name": "Malleshwaram 8th Cross", "lat": "12.99927824", "lon": "77.57132394", "stop_dist": "0.00"}, {"id": "10520", "name": "Malleshwaram 8th Cross 8th Main", "lat": "13.00008158", "lon": "77.56545603", "stop_dist": "0.00"}, {"id": "2154", "name": "Malleshwaram Circle", "lat": "12.99790235", "lon": "77.57134270", "stop_dist": "0.00"}, {"id": "2173", "name": "Malleshwaram Railway Station", "lat": "13.00067704", "lon": "77.56332129", "stop_dist": "0.00"}, {"id": "12336", "name": "Mallikarjunapura Vayyalikaval", "lat": "13.00534634", "lon": "77.57356904", "stop_dist": "0.00"}, {"id": "2064", "name": "Manjunatha Nagara WOC Road", "lat": "12.99585888", "lon": "77.55072313", "stop_dist": "0.00"}, {"id": "5729", "name": "Mantri Mall", "lat": "12.99183494", "lon": "77.57133008", "stop_dist": "0.00"}, {"id": "2197", "name": "Mariyappanapalya Navarang", "lat": "12.99847143", "lon": "77.55582443", "stop_dist": "0.00"}, {"id": "7342", "name": "Matadahalli", "lat": "13.01358366", "lon": "77.59367287", "stop_dist": "0.00"}, {"id": "5733", "name": "Mattikere", "lat": "13.03392940", "lon": "77.55789757", "stop_dist": "0.00"}, {"id": "10749", "name": "Mattikere Post Office", "lat": "13.02890248", "lon": "77.55902879", "stop_dist": "0.00"}, {"id": "10726", "name": "MD Block", "lat": "12.99327864", "lon": "77.56951220", "stop_dist": "0.00"}, {"id": "218", "name": "Mekhri Circle", "lat": "13.01944763", "lon": "77.58395839", "stop_dist": "0.00"}, {"id": "2174", "name": "Milk Colony Malleshwaram", "lat": "13.00913691", "lon": "77.55971121", "stop_dist": "0.00"}, {"id": "11139", "name": "Mount Carmel College", "lat": "12.99308652", "lon": "77.58890390", "stop_dist": "0.00"}, {"id": "259", "name": "MS Ramaiah College", "lat": "13.02883755", "lon": "77.56153062", "stop_dist": "0.00"}, {"id": "8238", "name": "MS Ramaiah Hospital", "lat": "13.02718367", "lon": "77.57175386", "stop_dist": "0.00"}, {"id": "5802", "name": "Munireddy Palya JC Nagara", "lat": "13.00381292", "lon": "77.59364605", "stop_dist": "0.00"}, {"id": "10886", "name": "Muthyalanagara Cross", "lat": "13.03786023", "lon": "77.55342096", "stop_dist": "0.00"}, {"id": "11982", "name": "Mysore Lamp", "lat": "13.01551294", "lon": "77.55937814", "stop_dist": "0.00"}, {"id": "534", "name": "Navarang Theatre", "lat": "12.99941968", "lon": "77.54980786", "stop_dist": "0.00"}, {"id": "219", "name": "Palace Ground", "lat": "13.01040167", "lon": "77.58400667", "stop_dist": "0.00"}, {"id": "1838", "name": "Rajajinagara 2nd Block", "lat": "12.99605818", "lon": "77.55142166", "stop_dist": "0.00"}, {"id": "13051", "name": "Rajajinagara Metro Station", "lat": "12.99981827", "lon": "77.54973225", "stop_dist": "0.00"}, {"id": "2254", "name": "Rajmahal Guttahalli", "lat": "12.99969604", "lon": "77.58431177", "stop_dist": "0.00"}, {"id": "10527", "name": "Ramamandira Srirampura", "lat": "12.99324662", "lon": "77.56772183", "stop_dist": "0.00"}, {"id": "10851", "name": "RMS Sheshadripuram", "lat": "12.99470823", "lon": "77.57828772", "stop_dist": "0.00"}, {"id": "5751", "name": "Sadashivanagara", "lat": "13.00864145", "lon": "77.58013375", "stop_dist": "0.00"}, {"id": "8236", "name": "Sadashivanagara Police Station", "lat": "13.01566452", "lon": "77.57265508", "stop_dist": "0.00"}, {"id": "12714", "name": "Sheraton Grand Bengaluru", "lat": "13.01262000", "lon": "77.55569011", "stop_dist": "0.00"}, {"id": "2191", "name": "Sriramapura 5th Cross", "lat": "12.99214333", "lon": "77.56644776", "stop_dist": "0.00"}, {"id": "2166", "name": "Srirampura Chowdeshwari Temple", "lat": "12.99473270", "lon": "77.56638293", "stop_dist": "0.00"}, {"id": "2225", "name": "Subramanyanagara Malleshwaram", "lat": "13.00414625", "lon": "77.56136018", "stop_dist": "0.00"}, {"id": "5200", "name": "Subramanyanagara Police Station", "lat": "13.00346991", "lon": "77.55356312", "stop_dist": "0.00"}, {"id": "538", "name": "Tata Institute", "lat": "13.01510243", "lon": "77.56386100", "stop_dist": "0.00"}, {"id": "486", "name": "TV Tower", "lat": "13.00962722", "lon": "77.59052356", "stop_dist": "0.00"}, {"id": "2147", "name": "Vaiyali Kaval", "lat": "13.00207964", "lon": "77.57849710", "stop_dist": "0.00"}, {"id": "14515", "name": "Vasantha Nagara Cantonment", "lat": "12.99382911", "lon": "77.59540625", "stop_dist": "0.00"}, {"id": "5199", "name": "Vivekananda College", "lat": "13.00926708", "lon": "77.55449116", "stop_dist": "0.00"}, {"id": "3196", "name": "Yashawanthapura Market", "lat": "13.01995428", "lon": "77.55566013", "stop_dist": "0.00"}, {"id": "501", "name": "Yeshwanthapura", "lat": "13.01784025", "lon": "77.55654693", "stop_dist": "0.00"}, {"id": "261", "name": "Yeshwanthapura Ayyappa Temple", "lat": "13.02139756", "lon": "77.56314794", "stop_dist": "0.00"}, {"id": "5900", "name": "Yeshwanthpura Tollgate", "lat": "13.01745723", "lon": "77.56080777", "stop_dist": "0.00"}]