[{"id": "10848", "name": "", "lat": "12.99521199", "lon": "77.59204678", "stop_dist": "0.00"}, {"id": "7387", "name": "Ambedkar Medical College Shampura", "lat": "13.02332136", "lon": "77.61248589", "stop_dist": "0.00"}, {"id": "659", "name": "Bamboo Bazaar", "lat": "12.99219243", "lon": "77.60414818", "stop_dist": "0.00"}, {"id": "12184", "name": "Bhuvaneshwarinagara RT Nagara", "lat": "13.03245243", "lon": "77.60471821", "stop_dist": "0.00"}, {"id": "11545", "name": "Bilal Masjid Tanary Road", "lat": "13.01178374", "lon": "77.61654675", "stop_dist": "0.00"}, {"id": "11157", "name": "Byadarahalli Jayamahal", "lat": "13.00116812", "lon": "77.60973930", "stop_dist": "0.00"}, {"id": "11833", "name": "Canara Bank Millers Road", "lat": "12.99551843", "lon": "77.60157265", "stop_dist": "0.00"}, {"id": "588", "name": "Cantonment Railway Station", "lat": "12.99278817", "lon": "77.59495232", "stop_dist": "0.00"}, {"id": "2332", "name": "Charls School Toll Gate", "lat": "13.00608723", "lon": "77.62093865", "stop_dist": "0.00"}, {"id": "689", "name": "Chinnappa Garden", "lat": "13.00302002", "lon": "77.60353880", "stop_dist": "0.00"}, {"id": "7372", "name": "Chinnappa Layout", "lat": "13.02806170", "lon": "77.61177242", "stop_dist": "0.00"}, {"id": "593", "name": "Clarence School", "lat": "13.00226912", "lon": "77.61665130", "stop_dist": "0.00"}, {"id": "591", "name": "Coles Park Millers Road", "lat": "12.99554851", "lon": "77.60656584", "stop_dist": "0.00"}, {"id": "1797", "name": "Coles Road", "lat": "12.99632578", "lon": "77.61236246", "stop_dist": "0.00"}, {"id": "1782", "name": "Cox Town", "lat": "12.99629380", "lon": "77.62153345", "stop_dist": "0.00"}, {"id": "7363", "name": "CQAL", "lat": "13.01071162", "lon": "77.59170749", "stop_dist": "0.00"}, {"id": "11165", "name": "CS-Imra Masjid Sunders Road", "lat": "12.99600127", "lon": "77.61135131", "stop_dist": "0.00"}, {"id": "456", "name": "CSI Hospital", "lat": "12.98992431", "lon": "77.59933748", "stop_dist": "0.00"}, {"id": "10644", "name": "Devis Road", "lat": "13.00327455", "lon": "77.61898018", "stop_dist": "0.00"}, {"id": "2357", "name": "Dinnur MainRoad", "lat": "13.02391946", "lon": "77.59884403", "stop_dist": "0.00"}, {"id": "664", "name": "Doddy Tannery Road", "lat": "13.00257755", "lon": "77.61206767", "stop_dist": "0.00"}, {"id": "630", "name": "East Railway Station", "lat": "13.00024247", "lon": "77.61721795", "stop_dist": "0.00"}, {"id": "592", "name": "Frazer Town", "lat": "13.00095911", "lon": "77.61294625", "stop_dist": "0.00"}, {"id": "693", "name": "Ganesha Temple Vasantanagara", "lat": "12.99524363", "lon": "77.59213849", "stop_dist": "0.00"}, {"id": "15243", "name": "Goodwill Womens College Hines Road", "lat": "12.99659650", "lon": "77.60917034", "stop_dist": "0.00"}, {"id": "10259", "name": "HBR Layout 2nd Stage", "lat": "13.03175015", "lon": "77.61207685", "stop_dist": "0.00"}, {"id": "12268", "name": "HBR Layout 2nd Stage Railway Gate", "lat": "13.02873720", "lon": "77.61561402", "stop_dist": "0.00"}, {"id": "9784", "name": "Hilalnagara Cross HBR Layout", "lat": "13.02151040", "lon": "77.62218744", "stop_dist": "0.00"}, {"id": "590", "name": "HK Degree College", "lat": "12.99183405", "lon": "77.60245694", "stop_dist": "0.00"}, {"id": "9527", "name": "HP Petrol Bunk Coles Road", "lat": "12.99663178", "lon": "77.61175163", "stop_dist": "0.00"}, {"id": "627", "name": "ITC Factory Banasawadi", "lat": "12.99861491", "lon": "77.62196905", "stop_dist": "0.00"}, {"id": "11908", "name": "Jayamahal Extension", "lat": "13.00208674", "lon": "77.59877577", "stop_dist": "0.00"}, {"id": "9560", "name": "JC Nagara Kabir Ashrama", "lat": "13.00952319", "lon": "77.59463310", "stop_dist": "0.00"}, {"id": "7365", "name": "Kabir Ashram JC Nagara", "lat": "13.01374635", "lon": "77.59651065", "stop_dist": "0.00"}, {"id": "672", "name": "Kadugondanahalli", "lat": "13.02593572", "lon": "77.61989335", "stop_dist": "0.00"}, {"id": "671", "name": "Kadugondanahalli Police Station", "lat": "13.02070393", "lon": "77.61894458", "stop_dist": "0.00"}, {"id": "11774", "name": "Kanakanagara", "lat": "13.03951364", "lon": "77.60727435", "stop_dist": "0.00"}, {"id": "9878", "name": "Kaval Byrasandra", "lat": "13.01970724", "lon": "77.60760896", "stop_dist": "0.00"}, {"id": "12008", "name": "KHB Colony Sultanpalya", "lat": "13.02821326", "lon": "77.60698333", "stop_dist": "0.00"}, {"id": "1785", "name": "Lake Side Hospital", "lat": "12.98850204", "lon": "77.61746024", "stop_dist": "0.00"}, {"id": "6829", "name": "Lavanya Talkies", "lat": "12.98601225", "lon": "77.61551410", "stop_dist": "0.00"}, {"id": "2290", "name": "Lingarajapura Bridge", "lat": "13.00898839", "lon": "77.62319770", "stop_dist": "0.00"}, {"id": "11802", "name": "LR Bande", "lat": "13.02895343", "lon": "77.61059493", "stop_dist": "0.00"}, {"id": "7369", "name": "Manjushree Hospital", "lat": "13.02135230", "lon": "77.60704770", "stop_dist": "0.00"}, {"id": "2359", "name": "Manorayanapalya", "lat": "13.02886119", "lon": "77.60160668", "stop_dist": "0.00"}, {"id": "2388", "name": "Marappa Garden", "lat": "13.00454089", "lon": "77.59968708", "stop_dist": "0.00"}, {"id": "7342", "name": "Matadahalli", "lat": "13.01358366", "lon": "77.59367287", "stop_dist": "0.00"}, {"id": "4338", "name": "MEG Centre", "lat": "12.98736283", "lon": "77.62262061", "stop_dist": "0.00"}, {"id": "11366", "name": "Millers Road", "lat": "12.99535051", "lon": "77.60299891", "stop_dist": "0.00"}, {"id": "15252", "name": "MM Layout Kavalbyrasandra", "lat": "13.02220094", "lon": "77.61009201", "stop_dist": "0.00"}, {"id": "12187", "name": "MM Medicals RT Nagara", "lat": "13.03140195", "lon": "77.60834388", "stop_dist": "0.00"}, {"id": "15877", "name": "Modhi Garden Kavakbyrasandra", "lat": "13.01722563", "lon": "77.60745842", "stop_dist": "0.00"}, {"id": "675", "name": "Mosque Road", "lat": "13.00031693", "lon": "77.61607925", "stop_dist": "0.00"}, {"id": "688", "name": "Muslim Colony", "lat": "13.01059863", "lon": "77.61522169", "stop_dist": "0.00"}, {"id": "11907", "name": "Nandidurga Road", "lat": "13.00055526", "lon": "77.59964347", "stop_dist": "0.00"}, {"id": "8402", "name": "P", "lat": "13.01211563", "lon": "77.61606932", "stop_dist": "0.00"}, {"id": "7367", "name": "P&T Quarters", "lat": "13.02150321", "lon": "77.60457069", "stop_dist": "0.00"}, {"id": "5335", "name": "Periyar Nagara Circle Tannery Road", "lat": "13.00864575", "lon": "77.61331335", "stop_dist": "0.00"}, {"id": "12584", "name": "Pillanna Garden 9th Main", "lat": "13.01192877", "lon": "77.61757806", "stop_dist": "0.00"}, {"id": "12188", "name": "Postal and Telecom Colony", "lat": "13.02460630", "lon": "77.60524727", "stop_dist": "0.00"}, {"id": "696", "name": "Pottery Town", "lat": "13.00243146", "lon": "77.60914089", "stop_dist": "0.00"}, {"id": "7374", "name": "Shampura Kavalbyrasandra", "lat": "13.02641147", "lon": "77.61421725", "stop_dist": "0.00"}, {"id": "14675", "name": "Shivajinagara Police Station", "lat": "12.98778688", "lon": "77.60346495", "stop_dist": "0.00"}, {"id": "5904", "name": "Shivanachetty Garden", "lat": "12.98973271", "lon": "77.61544035", "stop_dist": "0.00"}, {"id": "1783", "name": "Sindhi Colony", "lat": "12.99556417", "lon": "77.61664061", "stop_dist": "0.00"}, {"id": "11589", "name": "St Johns School Thamos Cafe", "lat": "12.99164776", "lon": "77.61149079", "stop_dist": "0.00"}, {"id": "2370", "name": "Sultanpalya", "lat": "13.02662127", "lon": "77.60394552", "stop_dist": "0.00"}, {"id": "2358", "name": "Sultanpalya Ashwathkatte", "lat": "13.02466383", "lon": "77.60329196", "stop_dist": "0.00"}, {"id": "7389", "name": "Sultanpalya Cross Pushpanjali Talkies", "lat": "13.02206963", "lon": "77.60235853", "stop_dist": "0.00"}, {"id": "667", "name": "Tannery Road Canara Bank", "lat": "13.00680094", "lon": "77.61247259", "stop_dist": "0.00"}, {"id": "2383", "name": "Thimmayya Garden", "lat": "13.01824626", "lon": "77.59872257", "stop_dist": "0.00"}, {"id": "1793", "name": "Thomas Bakery", "lat": "12.99115299", "lon": "77.61423039", "stop_dist": "0.00"}, {"id": "11360", "name": "Thomas Cafe", "lat": "12.99069319", "lon": "77.61358827", "stop_dist": "0.00"}, {"id": "14515", "name": "Vasantha Nagara Cantonment", "lat": "12.99382911", "lon": "77.59540625", "stop_dist": "0.00"}, {"id": "670", "name": "Venkateshapura Kadugondanahalli Police Station", "lat": "13.01512125", "lon": "77.61731724", "stop_dist": "0.00"}, {"id": "12011", "name": "Williams Town Park", "lat": "12.99998422", "lon": "77.60748558", "stop_dist": "0.00"}, {"id": "10623", "name": "YMC Nandhidurga Road", "lat": "12.99588429", "lon": "77.60195152", "stop_dist": "0.00"}]