[{"stop_id": "7387", "stop_name": "Ambedkar Medical College Shampura", "lat": "13.02332136", "lon": "77.61248589", "num_shelters_side_1": "", "stop_distance_side_1": "", "num_shelters_side_2": "", "stop_distance_side_2": "", "space_around": "", "ward_name": "Kaval Bairasandra", "ward_number": 32}, {"stop_id": "659", "stop_name": "Bamboo Bazaar", "lat": "12.99219243", "lon": "77.60414818", "num_shelters_side_1": "", "stop_distance_side_1": "", "num_shelters_side_2": "", "stop_distance_side_2": "", "space_around": "", "ward_name": "Jayamahal", "ward_number": 63}, {"stop_id": "12184", "stop_name": "Bhuvaneshwarinagara RT Nagara", "lat": "13.03245243", "lon": "77.60471821", "num_shelters_side_1": "", "stop_distance_side_1": "", "num_shelters_side_2": "", "stop_distance_side_2": "", "space_around": "", "ward_name": "Manorayanapalya", "ward_number": 33}, {"stop_id": "11545", "stop_name": "Bilal Masjid Tanary Road", "lat": "13.01178374", "lon": "77.61654675", "num_shelters_side_1": "", "stop_distance_side_1": "", "num_shelters_side_2": "", "stop_distance_side_2": "", "space_around": "", "ward_name": "Kadugondanahalli", "ward_number": 30}, {"stop_id": "11157", "stop_name": "Byadarahalli Jayamahal", "lat": "13.00116812", "lon": "77.60973930", "num_shelters_side_1": "", "stop_distance_side_1": "", "num_shelters_side_2": "", "stop_distance_side_2": "", "space_around": "", "ward_name": "S K Garden", "ward_number": 61}, {"stop_id": "11833", "stop_name": "Canara Bank Millers Road", "lat": "12.99551843", "lon": "77.60157265", "num_shelters_side_1": "", "stop_distance_side_1": "", "num_shelters_side_2": "", "stop_distance_side_2": "", "space_around": "", "ward_name": "Pulikeshinagar", "ward_number": 78}, {"stop_id": "588", "stop_name": "Cantonment Railway Station", "lat": "12.99278817", "lon": "77.59495232", "num_shelters_side_1": "", "stop_distance_side_1": "", "num_shelters_side_2": "", "stop_distance_side_2": "", "space_around": "", "ward_name": "Vasanth Nagar", "ward_number": 93}, {"stop_id": "2332", "stop_name": "Charls School Toll Gate", "lat": "13.00608723", "lon": "77.62093865", "num_shelters_side_1": "", "stop_distance_side_1": "", "num_shelters_side_2": "", "stop_distance_side_2": "", "space_around": "", "ward_name": "Maruthi Seva Nagar", "ward_number": 59}, {"stop_id": "689", "stop_name": "Chinnappa Garden", "lat": "13.00302002", "lon": "77.60353880", "num_shelters_side_1": "", "stop_distance_side_1": "", "num_shelters_side_2": "", "stop_distance_side_2": "", "space_around": "", "ward_name": "S K Garden", "ward_number": 61}, {"stop_id": "7372", "stop_name": "Chinnappa Layout", "lat": "13.02806170", "lon": "77.61177242", "num_shelters_side_1": "", "stop_distance_side_1": "", "num_shelters_side_2": "", "stop_distance_side_2": "", "space_around": "", "ward_name": "Kaval Bairasandra", "ward_number": 32}, {"stop_id": "593", "stop_name": "Clarence School", "lat": "13.00226912", "lon": "77.61665130", "num_shelters_side_1": "", "stop_distance_side_1": "", "num_shelters_side_2": "", "stop_distance_side_2": "", "space_around": "", "ward_name": "Sagayarapuram", "ward_number": 60}, {"stop_id": "591", "stop_name": "Coles Park Millers Road", "lat": "12.99554851", "lon": "77.60656584", "num_shelters_side_1": "", "stop_distance_side_1": "", "num_shelters_side_2": "", "stop_distance_side_2": "", "space_around": "", "ward_name": "Pulikeshinagar", "ward_number": 78}, {"stop_id": "1797", "stop_name": "Coles Road", "lat": "12.99632578", "lon": "77.61236246", "num_shelters_side_1": "", "stop_distance_side_1": "", "num_shelters_side_2": "", "stop_distance_side_2": "", "space_around": "", "ward_name": "Pulikeshinagar", "ward_number": 78}, {"stop_id": "1782", "stop_name": "Cox Town", "lat": "12.99629380", "lon": "77.62153345", "num_shelters_side_1": "", "stop_distance_side_1": "", "num_shelters_side_2": "", "stop_distance_side_2": "", "space_around": "", "ward_name": "Sarvagna Nagar", "ward_number": 79}, {"stop_id": "7363", "stop_name": "CQAL", "lat": "13.01071162", "lon": "77.59170749", "num_shelters_side_1": "", "stop_distance_side_1": "", "num_shelters_side_2": "", "stop_distance_side_2": "", "space_around": "", "ward_name": "Gangenahalli", "ward_number": 34}, {"stop_id": "11165", "stop_name": "CS-Imra Masjid Sunders Road", "lat": "12.99600127", "lon": "77.61135131", "num_shelters_side_1": "", "stop_distance_side_1": "", "num_shelters_side_2": "", "stop_distance_side_2": "", "space_around": "", "ward_name": "Pulikeshinagar", "ward_number": 78}, {"stop_id": "456", "stop_name": "CSI Hospital", "lat": "12.98992431", "lon": "77.59933748", "num_shelters_side_1": "", "stop_distance_side_1": "", "num_shelters_side_2": "", "stop_distance_side_2": "", "space_around": "", "ward_name": "Jayamahal", "ward_number": 63}, {"stop_id": "10644", "stop_name": "Devis Road", "lat": "13.00327455", "lon": "77.61898018", "num_shelters_side_1": "", "stop_distance_side_1": "", "num_shelters_side_2": "", "stop_distance_side_2": "", "space_around": "", "ward_name": "Sagayarapuram", "ward_number": 60}, {"stop_id": "2357", "stop_name": "Dinnur MainRoad", "lat": "13.02391946", "lon": "77.59884403", "num_shelters_side_1": "", "stop_distance_side_1": "", "num_shelters_side_2": "", "stop_distance_side_2": "", "space_around": "", "ward_name": "Jayachamarajendra Nagar", "ward_number": 46}, {"stop_id": "664", "stop_name": "Doddy Tannery Road", "lat": "13.00257755", "lon": "77.61206767", "num_shelters_side_1": "", "stop_distance_side_1": "", "num_shelters_side_2": "", "stop_distance_side_2": "", "space_around": "", "ward_name": "S K Garden", "ward_number": 61}, {"stop_id": "630", "stop_name": "East Railway Station", "lat": "13.00024247", "lon": "77.61721795", "num_shelters_side_1": "", "stop_distance_side_1": "", "num_shelters_side_2": "", "stop_distance_side_2": "", "space_around": "", "ward_name": "Pulikeshinagar", "ward_number": 78}, {"stop_id": "592", "stop_name": "Frazer Town", "lat": "13.00095911", "lon": "77.61294625", "num_shelters_side_1": "", "stop_distance_side_1": "", "num_shelters_side_2": "", "stop_distance_side_2": "", "space_around": "", "ward_name": "Pulikeshinagar", "ward_number": 78}, {"stop_id": "693", "stop_name": "Ganesha Temple Vasantanagara", "lat": "12.99524363", "lon": "77.59213849", "num_shelters_side_1": "", "stop_distance_side_1": "", "num_shelters_side_2": "", "stop_distance_side_2": "", "space_around": "", "ward_name": "Jayamahal", "ward_number": 63}, {"stop_id": "15243", "stop_name": "Goodwill Womens College Hines Road", "lat": "12.99659650", "lon": "77.60917034", "num_shelters_side_1": "", "stop_distance_side_1": "", "num_shelters_side_2": "", "stop_distance_side_2": "", "space_around": "", "ward_name": "Pulikeshinagar", "ward_number": 78}, {"stop_id": "10259", "stop_name": "HBR Layout 2nd Stage", "lat": "13.03175015", "lon": "77.61207685", "num_shelters_side_1": "", "stop_distance_side_1": "", "num_shelters_side_2": "", "stop_distance_side_2": "", "space_around": "", "ward_name": "Kaval Bairasandra", "ward_number": 32}, {"stop_id": "12268", "stop_name": "HBR Layout 2nd Stage Railway Gate", "lat": "13.02873720", "lon": "77.61561402", "num_shelters_side_1": "", "stop_distance_side_1": "", "num_shelters_side_2": "", "stop_distance_side_2": "", "space_around": "", "ward_name": "Kaval Bairasandra", "ward_number": 32}, {"stop_id": "9784", "stop_name": "Hilalnagara Cross HBR Layout", "lat": "13.02151040", "lon": "77.62218744", "num_shelters_side_1": "", "stop_distance_side_1": "", "num_shelters_side_2": "", "stop_distance_side_2": "", "space_around": "", "ward_name": "Kadugondanahalli", "ward_number": 30}, {"stop_id": "590", "stop_name": "HK Degree College", "lat": "12.99183405", "lon": "77.60245694", "num_shelters_side_1": "", "stop_distance_side_1": "", "num_shelters_side_2": "", "stop_distance_side_2": "", "space_around": "", "ward_name": "Jayamahal", "ward_number": 63}, {"stop_id": "9527", "stop_name": "HP Petrol Bunk Coles Road", "lat": "12.99663178", "lon": "77.61175163", "num_shelters_side_1": "", "stop_distance_side_1": "", "num_shelters_side_2": "", "stop_distance_side_2": "", "space_around": "", "ward_name": "Pulikeshinagar", "ward_number": 78}, {"stop_id": "627", "stop_name": "ITC Factory Banasawadi", "lat": "12.99861491", "lon": "77.62196905", "num_shelters_side_1": "", "stop_distance_side_1": "", "num_shelters_side_2": "", "stop_distance_side_2": "", "space_around": "", "ward_name": "Maruthi Seva Nagar", "ward_number": 59}, {"stop_id": "11908", "stop_name": "Jayamahal Extension", "lat": "13.00208674", "lon": "77.59877577", "num_shelters_side_1": "", "stop_distance_side_1": "", "num_shelters_side_2": "", "stop_distance_side_2": "", "space_around": "", "ward_name": "Ramaswamy Palya", "ward_number": 62}, {"stop_id": "9560", "stop_name": "JC Nagara Kabir Ashrama", "lat": "13.00952319", "lon": "77.59463310", "num_shelters_side_1": "", "stop_distance_side_1": "", "num_shelters_side_2": "", "stop_distance_side_2": "", "space_around": "", "ward_name": "Jayachamarajendra Nagar", "ward_number": 46}, {"stop_id": "7365", "stop_name": "Kabir Ashram JC Nagara", "lat": "13.01374635", "lon": "77.59651065", "num_shelters_side_1": "", "stop_distance_side_1": "", "num_shelters_side_2": "", "stop_distance_side_2": "", "space_around": "", "ward_name": "Jayachamarajendra Nagar", "ward_number": 46}, {"stop_id": "672", "stop_name": "Kadugondanahalli", "lat": "13.02593572", "lon": "77.61989335", "num_shelters_side_1": "", "stop_distance_side_1": "", "num_shelters_side_2": "", "stop_distance_side_2": "", "space_around": "", "ward_name": "Nagavara", "ward_number": 23}, {"stop_id": "671", "stop_name": "Kadugondanahalli Police Station", "lat": "13.02070393", "lon": "77.61894458", "num_shelters_side_1": "", "stop_distance_side_1": "", "num_shelters_side_2": "", "stop_distance_side_2": "", "space_around": "", "ward_name": "Kushal Nagar", "ward_number": 31}, {"stop_id": "11774", "stop_name": "Kanakanagara", "lat": "13.03951364", "lon": "77.60727435", "num_shelters_side_1": "", "stop_distance_side_1": "", "num_shelters_side_2": "", "stop_distance_side_2": "", "space_around": "", "ward_name": "Vishwanath Nagenahalli", "ward_number": 22}, {"stop_id": "9878", "stop_name": "Kaval Byrasandra", "lat": "13.01970724", "lon": "77.60760896", "num_shelters_side_1": "", "stop_distance_side_1": "", "num_shelters_side_2": "", "stop_distance_side_2": "", "space_around": "", "ward_name": "Kaval Bairasandra", "ward_number": 32}, {"stop_id": "12008", "stop_name": "KHB Colony Sultanpalya", "lat": "13.02821326", "lon": "77.60698333", "num_shelters_side_1": "", "stop_distance_side_1": "", "num_shelters_side_2": "", "stop_distance_side_2": "", "space_around": "", "ward_name": "Vishwanath Nagenahalli", "ward_number": 22}, {"stop_id": "1785", "stop_name": "Lake Side Hospital", "lat": "12.98850204", "lon": "77.61746024", "num_shelters_side_1": "", "stop_distance_side_1": "", "num_shelters_side_2": "", "stop_distance_side_2": "", "space_around": "", "ward_name": "Pulikeshinagar", "ward_number": 78}, {"stop_id": "6829", "stop_name": "Lavanya Talkies", "lat": "12.98601225", "lon": "77.61551410", "num_shelters_side_1": "", "stop_distance_side_1": "", "num_shelters_side_2": "", "stop_distance_side_2": "", "space_around": "", "ward_name": "Halsoor", "ward_number": 90}, {"stop_id": "2290", "stop_name": "Lingarajapura Bridge", "lat": "13.00898839", "lon": "77.62319770", "num_shelters_side_1": "", "stop_distance_side_1": "", "num_shelters_side_2": "", "stop_distance_side_2": "", "space_around": "", "ward_name": "Lingarajapura", "ward_number": 49}, {"stop_id": "11802", "stop_name": "LR Bande", "lat": "13.02895343", "lon": "77.61059493", "num_shelters_side_1": "", "stop_distance_side_1": "", "num_shelters_side_2": "", "stop_distance_side_2": "", "space_around": "", "ward_name": "Kaval Bairasandra", "ward_number": 32}, {"stop_id": "7369", "stop_name": "Manjushree Hospital", "lat": "13.02135230", "lon": "77.60704770", "num_shelters_side_1": "", "stop_distance_side_1": "", "num_shelters_side_2": "", "stop_distance_side_2": "", "space_around": "", "ward_name": "Kaval Bairasandra", "ward_number": 32}, {"stop_id": "2359", "stop_name": "Manorayanapalya", "lat": "13.02886119", "lon": "77.60160668", "num_shelters_side_1": "", "stop_distance_side_1": "", "num_shelters_side_2": "", "stop_distance_side_2": "", "space_around": "", "ward_name": "Vishwanath Nagenahalli", "ward_number": 22}, {"stop_id": "2388", "stop_name": "Marappa Garden", "lat": "13.00454089", "lon": "77.59968708", "num_shelters_side_1": "", "stop_distance_side_1": "", "num_shelters_side_2": "", "stop_distance_side_2": "", "space_around": "", "ward_name": "Ramaswamy Palya", "ward_number": 62}, {"stop_id": "7342", "stop_name": "Matadahalli", "lat": "13.01358366", "lon": "77.59367287", "num_shelters_side_1": "", "stop_distance_side_1": "", "num_shelters_side_2": "", "stop_distance_side_2": "", "space_around": "", "ward_name": "Jayachamarajendra Nagar", "ward_number": 46}, {"stop_id": "4338", "stop_name": "MEG Centre", "lat": "12.98736283", "lon": "77.62262061", "num_shelters_side_1": "", "stop_distance_side_1": "", "num_shelters_side_2": "", "stop_distance_side_2": "", "space_around": "", "ward_name": "Sarvagna Nagar", "ward_number": 79}, {"stop_id": "11366", "stop_name": "Millers Road", "lat": "12.99535051", "lon": "77.60299891", "num_shelters_side_1": "", "stop_distance_side_1": "", "num_shelters_side_2": "", "stop_distance_side_2": "", "space_around": "", "ward_name": "Jayamahal", "ward_number": 63}, {"stop_id": "15252", "stop_name": "MM Layout Kavalbyrasandra", "lat": "13.02220094", "lon": "77.61009201", "num_shelters_side_1": "", "stop_distance_side_1": "", "num_shelters_side_2": "", "stop_distance_side_2": "", "space_around": "", "ward_name": "Kaval Bairasandra", "ward_number": 32}, {"stop_id": "12187", "stop_name": "MM Medicals RT Nagara", "lat": "13.03140195", "lon": "77.60834388", "num_shelters_side_1": "", "stop_distance_side_1": "", "num_shelters_side_2": "", "stop_distance_side_2": "", "space_around": "", "ward_name": "Vishwanath Nagenahalli", "ward_number": 22}, {"stop_id": "15877", "stop_name": "Modhi Garden Kavakbyrasandra", "lat": "13.01722563", "lon": "77.60745842", "num_shelters_side_1": "", "stop_distance_side_1": "", "num_shelters_side_2": "", "stop_distance_side_2": "", "space_around": "", "ward_name": "Devara Jeevanahalli", "ward_number": 47}, {"stop_id": "675", "stop_name": "Mosque Road", "lat": "13.00031693", "lon": "77.61607925", "num_shelters_side_1": "", "stop_distance_side_1": "", "num_shelters_side_2": "", "stop_distance_side_2": "", "space_around": "", "ward_name": "Pulikeshinagar", "ward_number": 78}, {"stop_id": "688", "stop_name": "Muslim Colony", "lat": "13.01059863", "lon": "77.61522169", "num_shelters_side_1": "", "stop_distance_side_1": "", "num_shelters_side_2": "", "stop_distance_side_2": "", "space_around": "", "ward_name": "Kushal Nagar", "ward_number": 31}, {"stop_id": "11907", "stop_name": "Nandidurga Road", "lat": "13.00055526", "lon": "77.59964347", "num_shelters_side_1": "", "stop_distance_side_1": "", "num_shelters_side_2": "", "stop_distance_side_2": "", "space_around": "", "ward_name": "Jayamahal", "ward_number": 63}, {"stop_id": "8402", "stop_name": "P", "lat": "13.01211563", "lon": "77.61606932", "num_shelters_side_1": "", "stop_distance_side_1": "", "num_shelters_side_2": "", "stop_distance_side_2": "", "space_around": "", "ward_name": "Kushal Nagar", "ward_number": 31}, {"stop_id": "7367", "stop_name": "P&T Quarters", "lat": "13.02150321", "lon": "77.60457069", "num_shelters_side_1": "", "stop_distance_side_1": "", "num_shelters_side_2": "", "stop_distance_side_2": "", "space_around": "", "ward_name": "Devara Jeevanahalli", "ward_number": 47}, {"stop_id": "5335", "stop_name": "Periyar Nagara Circle Tannery Road", "lat": "13.00864575", "lon": "77.61331335", "num_shelters_side_1": "", "stop_distance_side_1": "", "num_shelters_side_2": "", "stop_distance_side_2": "", "space_around": "", "ward_name": "Kushal Nagar", "ward_number": 31}, {"stop_id": "12584", "stop_name": "Pillanna Garden 9th Main", "lat": "13.01192877", "lon": "77.61757806", "num_shelters_side_1": "", "stop_distance_side_1": "", "num_shelters_side_2": "", "stop_distance_side_2": "", "space_around": "", "ward_name": "Kadugondanahalli", "ward_number": 30}, {"stop_id": "12188", "stop_name": "Postal and Telecom Colony", "lat": "13.02460630", "lon": "77.60524727", "num_shelters_side_1": "", "stop_distance_side_1": "", "num_shelters_side_2": "", "stop_distance_side_2": "", "space_around": "", "ward_name": "Kaval Bairasandra", "ward_number": 32}, {"stop_id": "696", "stop_name": "Pottery Town", "lat": "13.00243146", "lon": "77.60914089", "num_shelters_side_1": "", "stop_distance_side_1": "", "num_shelters_side_2": "", "stop_distance_side_2": "", "space_around": "", "ward_name": "S K Garden", "ward_number": 61}, {"stop_id": "7374", "stop_name": "Shampura Kavalbyrasandra", "lat": "13.02641147", "lon": "77.61421725", "num_shelters_side_1": "", "stop_distance_side_1": "", "num_shelters_side_2": "", "stop_distance_side_2": "", "space_around": "", "ward_name": "Kaval Bairasandra", "ward_number": 32}, {"stop_id": "14675", "stop_name": "Shivajinagara Police Station", "lat": "12.98778688", "lon": "77.60346495", "num_shelters_side_1": "", "stop_distance_side_1": "", "num_shelters_side_2": "", "stop_distance_side_2": "", "space_around": "", "ward_name": "Shivaji Nagar", "ward_number": 92}, {"stop_id": "5904", "stop_name": "Shivanachetty Garden", "lat": "12.98973271", "lon": "77.61544035", "num_shelters_side_1": "", "stop_distance_side_1": "", "num_shelters_side_2": "", "stop_distance_side_2": "", "space_around": "", "ward_name": "Bharathi Nagar", "ward_number": 91}, {"stop_id": "1783", "stop_name": "Sindhi Colony", "lat": "12.99556417", "lon": "77.61664061", "num_shelters_side_1": "", "stop_distance_side_1": "", "num_shelters_side_2": "", "stop_distance_side_2": "", "space_around": "", "ward_name": "Pulikeshinagar", "ward_number": 78}, {"stop_id": "11589", "stop_name": "St Johns School Thamos Cafe", "lat": "12.99164776", "lon": "77.61149079", "num_shelters_side_1": "", "stop_distance_side_1": "", "num_shelters_side_2": "", "stop_distance_side_2": "", "space_around": "", "ward_name": "Pulikeshinagar", "ward_number": 78}, {"stop_id": "2370", "stop_name": "Sultanpalya", "lat": "13.02662127", "lon": "77.60394552", "num_shelters_side_1": "", "stop_distance_side_1": "", "num_shelters_side_2": "", "stop_distance_side_2": "", "space_around": "", "ward_name": "Kaval Bairasandra", "ward_number": 32}, {"stop_id": "2358", "stop_name": "Sultanpalya Ashwathkatte", "lat": "13.02466383", "lon": "77.60329196", "num_shelters_side_1": "", "stop_distance_side_1": "", "num_shelters_side_2": "", "stop_distance_side_2": "", "space_around": "", "ward_name": "Kaval Bairasandra", "ward_number": 32}, {"stop_id": "7389", "stop_name": "Sultanpalya Cross Pushpanjali Talkies", "lat": "13.02206963", "lon": "77.60235853", "num_shelters_side_1": "", "stop_distance_side_1": "", "num_shelters_side_2": "", "stop_distance_side_2": "", "space_around": "", "ward_name": "Devara Jeevanahalli", "ward_number": 47}, {"stop_id": "667", "stop_name": "Tannery Road Canara Bank", "lat": "13.00680094", "lon": "77.61247259", "num_shelters_side_1": "", "stop_distance_side_1": "", "num_shelters_side_2": "", "stop_distance_side_2": "", "space_around": "", "ward_name": "S K Garden", "ward_number": 61}, {"stop_id": "2383", "stop_name": "Thimmayya Garden", "lat": "13.01824626", "lon": "77.59872257", "num_shelters_side_1": "", "stop_distance_side_1": "", "num_shelters_side_2": "", "stop_distance_side_2": "", "space_around": "", "ward_name": "Devara Jeevanahalli", "ward_number": 47}, {"stop_id": "1793", "stop_name": "Thomas Bakery", "lat": "12.99115299", "lon": "77.61423039", "num_shelters_side_1": "", "stop_distance_side_1": "", "num_shelters_side_2": "", "stop_distance_side_2": "", "space_around": "", "ward_name": "Pulikeshinagar", "ward_number": 78}, {"stop_id": "11360", "stop_name": "Thomas Cafe", "lat": "12.99069319", "lon": "77.61358827", "num_shelters_side_1": "", "stop_distance_side_1": "", "num_shelters_side_2": "", "stop_distance_side_2": "", "space_around": "", "ward_name": "Bharathi Nagar", "ward_number": 91}, {"stop_id": "14515", "stop_name": "Vasantha Nagara Cantonment", "lat": "12.99382911", "lon": "77.59540625", "num_shelters_side_1": "", "stop_distance_side_1": "", "num_shelters_side_2": "", "stop_distance_side_2": "", "space_around": "", "ward_name": "Jayamahal", "ward_number": 63}, {"stop_id": "670", "stop_name": "Venkateshapura Kadugondanahalli Police Station", "lat": "13.01512125", "lon": "77.61731724", "num_shelters_side_1": "", "stop_distance_side_1": "", "num_shelters_side_2": "", "stop_distance_side_2": "", "space_around": "", "ward_name": "Kushal Nagar", "ward_number": 31}, {"stop_id": "12011", "stop_name": "Williams Town Park", "lat": "12.99998422", "lon": "77.60748558", "num_shelters_side_1": "", "stop_distance_side_1": "", "num_shelters_side_2": "", "stop_distance_side_2": "", "space_around": "", "ward_name": "S K Garden", "ward_number": 61}, {"stop_id": "10623", "stop_name": "YMC Nandhidurga Road", "lat": "12.99588429", "lon": "77.60195152", "num_shelters_side_1": "", "stop_distance_side_1": "", "num_shelters_side_2": "", "stop_distance_side_2": "", "space_around": "", "ward_name": "Jayamahal", "ward_number": 63}]