[{"id": "313", "name": "Agrahara Dasarahalli", "lat": "12.97852542", "lon": "77.54296472", "stop_dist": "0.00"}, {"id": "1433", "name": "Anubhavanagara Moodalapalya", "lat": "12.96741272", "lon": "77.52384050", "stop_dist": "0.00"}, {"id": "1400", "name": "Attiguppe", "lat": "12.95780009", "lon": "77.53384684", "stop_dist": "0.00"}, {"id": "1373", "name": "Avalahalli BDA Park Girinagara", "lat": "12.94323054", "lon": "77.54261674", "stop_dist": "0.00"}, {"id": "4933", "name": "Avalahalli New BDA Layout Girinagara", "lat": "12.94337406", "lon": "77.53685899", "stop_dist": "0.00"}, {"id": "1681", "name": "Banashankari 1st Stage Muneshwara Block KEB", "lat": "12.94205190", "lon": "77.55059518", "stop_dist": "0.00"}, {"id": "3305", "name": "Banashankari 3rd Stage 2nd Phase", "lat": "12.93401902", "lon": "77.53991560", "stop_dist": "0.00"}, {"id": "4704", "name": "BCC Layout", "lat": "12.95131413", "lon": "77.52964586", "stop_dist": "0.00"}, {"id": "5918", "name": "BHEL Mysore Road", "lat": "12.94882431", "lon": "77.53574788", "stop_dist": "0.00"}, {"id": "15939", "name": "BHEL Town Ship Vijayanagara", "lat": "12.96165481", "lon": "77.53194183", "stop_dist": "0.00"}, {"id": "1398", "name": "Binni Layout Pipeline", "lat": "12.96775494", "lon": "77.54513696", "stop_dist": "0.00"}, {"id": "1408", "name": "Chandra Layout", "lat": "12.95827325", "lon": "77.52634499", "stop_dist": "0.00"}, {"id": "1406", "name": "Chandra Layout ganesha Temple", "lat": "12.95771537", "lon": "77.52867586", "stop_dist": "0.00"}, {"id": "5475", "name": "Chandra Layout Jyothinagara", "lat": "12.95937289", "lon": "77.52177357", "stop_dist": "0.00"}, {"id": "1403", "name": "Chandra Public School Chandra Layout", "lat": "12.96018726", "lon": "77.52955071", "stop_dist": "0.00"}, {"id": "1499", "name": "CS-Spirit Junction Chandra Layout", "lat": "12.96056653", "lon": "77.52939774", "stop_dist": "0.00"}, {"id": "8409", "name": "Deepanjalinagara", "lat": "12.95115272", "lon": "77.53722444", "stop_dist": "0.00"}, {"id": "3364", "name": "Dwarakanagara Hoskerehalli", "lat": "12.93373771", "lon": "77.53890607", "stop_dist": "0.00"}, {"id": "5500", "name": "Gangondanahalli Masjid Chandra Layout", "lat": "12.94964903", "lon": "77.52676785", "stop_dist": "0.00"}, {"id": "4937", "name": "Girinagara", "lat": "12.94313749", "lon": "77.54464343", "stop_dist": "0.00"}, {"id": "5482", "name": "GKW Layout Vijayanagara", "lat": "12.96804956", "lon": "77.52858102", "stop_dist": "0.00"}, {"id": "3069", "name": "Govindarajanagara Vijayanagara", "lat": "12.97559878", "lon": "77.53658194", "stop_dist": "0.00"}, {"id": "4895", "name": "Hampinagara Post Office", "lat": "12.96519658", "lon": "77.53804922", "stop_dist": "0.00"}, {"id": "5197", "name": "Hampinagara RPC Layout", "lat": "12.95893769", "lon": "77.53557086", "stop_dist": "0.00"}, {"id": "13963", "name": "HMS", "lat": "12.97426771", "lon": "77.54479431", "stop_dist": "0.00"}, {"id": "1986", "name": "Hoskerehalli", "lat": "12.93030789", "lon": "77.53956987", "stop_dist": "0.00"}, {"id": "7257", "name": "Hoskerehalli Petrol Bunk", "lat": "12.93290845", "lon": "77.54016280", "stop_dist": "0.00"}, {"id": "3052", "name": "Income Tax Layout", "lat": "12.96008017", "lon": "77.53116544", "stop_dist": "0.00"}, {"id": "2685", "name": "Jaga Jeevan Ram Nagara", "lat": "12.96461282", "lon": "77.55486220", "stop_dist": "0.00"}, {"id": "4926", "name": "Kalidasa Layout", "lat": "12.94834530", "lon": "77.55246542", "stop_dist": "0.00"}, {"id": "11663", "name": "Kempapura Agarahara Goripalya", "lat": "12.96911991", "lon": "77.55465209", "stop_dist": "0.00"}, {"id": "5121", "name": "Kwality Biscuits Factory", "lat": "12.94681545", "lon": "77.53107279", "stop_dist": "0.00"}, {"id": "198", "name": "Magadi Road 10th Cross", "lat": "12.97578029", "lon": "77.55691837", "stop_dist": "0.00"}, {"id": "317", "name": "Magadi Road 1st Cross", "lat": "12.97587214", "lon": "77.56328904", "stop_dist": "0.00"}, {"id": "1818", "name": "Magadi Road 5th Cross", "lat": "12.97584555", "lon": "77.56078154", "stop_dist": "0.00"}, {"id": "314", "name": "Magadi Road Tollgate", "lat": "12.97468137", "lon": "77.54886863", "stop_dist": "0.00"}, {"id": "194", "name": "Manuvana Vijayanagara", "lat": "12.97426683", "lon": "77.54457001", "stop_dist": "0.00"}, {"id": "5", "name": "MC Layout A.Dasarahalli", "lat": "12.97500273", "lon": "77.54211521", "stop_dist": "0.00"}, {"id": "1685", "name": "Muneshwara Block", "lat": "12.94226689", "lon": "77.54858228", "stop_dist": "0.00"}, {"id": "1683", "name": "Muneshwara Nagara Srinagara", "lat": "12.94494133", "lon": "77.54730354", "stop_dist": "0.00"}, {"id": "269", "name": "Mysore Road Bus Station", "lat": "12.95357441", "lon": "77.54377783", "stop_dist": "0.00"}, {"id": "1411", "name": "Nagarabhavi", "lat": "12.95845489", "lon": "77.51901091", "stop_dist": "0.00"}, {"id": "1480", "name": "Nagarabhavi Byraveshwara Layout", "lat": "12.96518406", "lon": "77.52336152", "stop_dist": "0.00"}, {"id": "1483", "name": "Nagarabhavi Maruthinagara", "lat": "12.96172963", "lon": "77.52182067", "stop_dist": "0.00"}, {"id": "5180", "name": "Nagendra Block", "lat": "12.94190627", "lon": "77.55291670", "stop_dist": "0.00"}, {"id": "571", "name": "Nayandahalli Junction", "lat": "12.94502640", "lon": "77.52858343", "stop_dist": "0.00"}, {"id": "12690", "name": "Nayandahalli Metro Station", "lat": "12.94627957", "lon": "77.52967268", "stop_dist": "0.00"}, {"id": "570", "name": "Nayandahalli Railway Gate", "lat": "12.94593111", "lon": "77.52638885", "stop_dist": "0.00"}, {"id": "5485", "name": "New Guddadahalli", "lat": "12.95590554", "lon": "77.54592754", "stop_dist": "0.00"}, {"id": "13971", "name": "New Public School Vijayanagara", "lat": "12.97551577", "lon": "77.54217379", "stop_dist": "0.00"}, {"id": "8454", "name": "PES College Outer Ring Road", "lat": "12.93479065", "lon": "77.53710374", "stop_dist": "0.00"}, {"id": "4699", "name": "Pramod Layout", "lat": "12.93880203", "lon": "77.52866284", "stop_dist": "0.00"}, {"id": "4760", "name": "Prasanna Theatre", "lat": "12.97545631", "lon": "77.55290933", "stop_dist": "0.00"}, {"id": "4763", "name": "Rajajinagara 6th Block", "lat": "12.97961666", "lon": "77.55358726", "stop_dist": "0.00"}, {"id": "3071", "name": "Sarvajna College Vijayanagara", "lat": "12.97573487", "lon": "77.53910017", "stop_dist": "0.00"}, {"id": "1567", "name": "Seetha Circle", "lat": "12.93774272", "lon": "77.54968336", "stop_dist": "0.00"}, {"id": "5480", "name": "Subbanna Garden Vijayanagara", "lat": "12.96466858", "lon": "77.53218323", "stop_dist": "0.00"}, {"id": "4939", "name": "Telecom Colony New Guddadahalli", "lat": "12.95158599", "lon": "77.54635334", "stop_dist": "0.00"}, {"id": "11714", "name": "Telecom Layout RPC Layout", "lat": "12.96673220", "lon": "77.54680932", "stop_dist": "0.00"}, {"id": "4924", "name": "Telecom Layout Srinagara", "lat": "12.94843221", "lon": "77.54936613", "stop_dist": "0.00"}, {"id": "1687", "name": "Timber Yard Layout", "lat": "12.94839080", "lon": "77.54334760", "stop_dist": "0.00"}, {"id": "3302", "name": "Veerabhadranagara", "lat": "12.93798025", "lon": "77.53353336", "stop_dist": "0.00"}, {"id": "11631", "name": "Vidyagiri Layout Nagarabhavi", "lat": "12.95570558", "lon": "77.52117812", "stop_dist": "0.00"}, {"id": "191", "name": "Vijayanagara", "lat": "12.97185438", "lon": "77.53764583", "stop_dist": "0.00"}, {"id": "12333", "name": "Vijayanagara ISRO Quarters", "lat": "12.96769342", "lon": "77.54104726", "stop_dist": "0.00"}, {"id": "190", "name": "Vijayanagara Maruthi Mandira", "lat": "12.96772910", "lon": "77.53617308", "stop_dist": "0.00"}, {"id": "1397", "name": "Vijayanagara Pipe Line Park", "lat": "12.97035831", "lon": "77.54620364", "stop_dist": "0.00"}, {"id": "2673", "name": "Vijayanagara TTMC", "lat": "12.96490469", "lon": "77.53502957", "stop_dist": "0.00"}, {"id": "4886", "name": "Vijayanagara Vijaya Bank", "lat": "12.97358945", "lon": "77.54165947", "stop_dist": "0.00"}, {"id": "4647", "name": "Vinayaka Layout Vijayanagara", "lat": "12.96489860", "lon": "77.53037006", "stop_dist": "0.00"}, {"id": "11655", "name": "Vinayakanagara Hale Guddadahalli", "lat": "12.96087716", "lon": "77.55062341", "stop_dist": "0.00"}]