[{"id": "8322", "name": "Ananda Rao Circle", "lat": "12.98115609", "lon": "77.57462181", "stop_dist": "0.00"}, {"id": "2188", "name": "Bandi Reddy Circle", "lat": "12.99136273", "lon": "77.56391660", "stop_dist": "0.00"}, {"id": "1814", "name": "Binny Mill", "lat": "12.97056963", "lon": "77.56621192", "stop_dist": "0.00"}, {"id": "1813", "name": "Binnypet", "lat": "12.96467391", "lon": "77.56169890", "stop_dist": "0.00"}, {"id": "5355", "name": "Central Rajiv Gandhi Circle", "lat": "12.98978170", "lon": "77.57239960", "stop_dist": "0.00"}, {"id": "8575", "name": "Cottonpet Hospital Super Talkies", "lat": "12.96813711", "lon": "77.57027730", "stop_dist": "0.00"}, {"id": "2152", "name": "Dattatreya Temple Malleshwaram", "lat": "12.99892824", "lon": "77.57460858", "stop_dist": "0.00"}, {"id": "2203", "name": "Devaiah Park", "lat": "12.99641110", "lon": "77.56424332", "stop_dist": "0.00"}, {"id": "200", "name": "Gopalapura Dr Rajakumar Road", "lat": "12.98069606", "lon": "77.55784869", "stop_dist": "0.00"}, {"id": "2688", "name": "Goripalya Maramma Temple", "lat": "12.96304333", "lon": "77.55904333", "stop_dist": "0.00"}, {"id": "2685", "name": "Jaga Jeevan Ram Nagara", "lat": "12.96461282", "lon": "77.55486220", "stop_dist": "0.00"}, {"id": "189", "name": "Janatha Dala Office Ananda Rao Circle", "lat": "12.98296333", "lon": "77.57644167", "stop_dist": "0.00"}, {"id": "12459", "name": "Karnataka Chitrakala Parishath", "lat": "12.98886107", "lon": "77.58110404", "stop_dist": "0.00"}, {"id": "11663", "name": "Kempapura Agarahara Goripalya", "lat": "12.96911991", "lon": "77.55465209", "stop_dist": "0.00"}, {"id": "160", "name": "Kempegowda Bus Station", "lat": "12.97751447", "lon": "77.57178022", "stop_dist": "0.00"}, {"id": "11570", "name": "KG Road Junction", "lat": "12.97424419", "lon": "77.57816233", "stop_dist": "0.00"}, {"id": "61", "name": "KR Circle", "lat": "12.97472667", "lon": "77.58691000", "stop_dist": "0.00"}, {"id": "268", "name": "KR Market", "lat": "12.96420069", "lon": "77.57761288", "stop_dist": "0.00"}, {"id": "264", "name": "Link Road Central", "lat": "12.99424589", "lon": "77.57398298", "stop_dist": "0.00"}, {"id": "198", "name": "Magadi Road 10th Cross", "lat": "12.97578029", "lon": "77.55691837", "stop_dist": "0.00"}, {"id": "317", "name": "Magadi Road 1st Cross", "lat": "12.97587214", "lon": "77.56328904", "stop_dist": "0.00"}, {"id": "1818", "name": "Magadi Road 5th Cross", "lat": "12.97584555", "lon": "77.56078154", "stop_dist": "0.00"}, {"id": "2690", "name": "Magadi Road Hunasemara", "lat": "12.97535180", "lon": "77.56495368", "stop_dist": "0.00"}, {"id": "584", "name": "Maharanis College", "lat": "12.97887554", "lon": "77.58477431", "stop_dist": "0.00"}, {"id": "226", "name": "Malleshwaram 11th Cross", "lat": "13.00292613", "lon": "77.57126014", "stop_dist": "0.00"}, {"id": "8360", "name": "Malleshwaram 13th Cross", "lat": "13.00367964", "lon": "77.56931305", "stop_dist": "0.00"}, {"id": "227", "name": "Malleshwaram 15th Cross", "lat": "13.00512833", "lon": "77.57118500", "stop_dist": "0.00"}, {"id": "263", "name": "Malleshwaram 8th Cross", "lat": "12.99927824", "lon": "77.57132394", "stop_dist": "0.00"}, {"id": "10520", "name": "Malleshwaram 8th Cross 8th Main", "lat": "13.00008158", "lon": "77.56545603", "stop_dist": "0.00"}, {"id": "2154", "name": "Malleshwaram Circle", "lat": "12.99790235", "lon": "77.57134270", "stop_dist": "0.00"}, {"id": "12336", "name": "Mallikarjunapura Vayyalikaval", "lat": "13.00534634", "lon": "77.57356904", "stop_dist": "0.00"}, {"id": "5729", "name": "Mantri Mall", "lat": "12.99183494", "lon": "77.57133008", "stop_dist": "0.00"}, {"id": "10726", "name": "MD Block", "lat": "12.99327864", "lon": "77.56951220", "stop_dist": "0.00"}, {"id": "5699", "name": "Minerva Mill", "lat": "12.97947306", "lon": "77.56432681", "stop_dist": "0.00"}, {"id": "652", "name": "Mysore Bank", "lat": "12.97349267", "lon": "77.58150066", "stop_dist": "0.00"}, {"id": "205", "name": "Okalipura", "lat": "12.98269410", "lon": "77.56858010", "stop_dist": "0.00"}, {"id": "4760", "name": "Prasanna Theatre", "lat": "12.97545631", "lon": "77.55290933", "stop_dist": "0.00"}, {"id": "4763", "name": "Rajajinagara 6th Block", "lat": "12.97961666", "lon": "77.55358726", "stop_dist": "0.00"}, {"id": "10773", "name": "Rajajinagara Entrance Link Road", "lat": "12.98441141", "lon": "77.55701244", "stop_dist": "0.00"}, {"id": "2254", "name": "Rajmahal Guttahalli", "lat": "12.99969604", "lon": "77.58431177", "stop_dist": "0.00"}, {"id": "1846", "name": "Rama Mandira Rajajinagara", "lat": "12.98622758", "lon": "77.55636379", "stop_dist": "0.00"}, {"id": "10527", "name": "Ramamandira Srirampura", "lat": "12.99324662", "lon": "77.56772183", "stop_dist": "0.00"}, {"id": "10851", "name": "RMS Sheshadripuram", "lat": "12.99470823", "lon": "77.57828772", "stop_dist": "0.00"}, {"id": "223", "name": "Sheshadripuram Swastik", "lat": "12.98781654", "lon": "77.57456486", "stop_dist": "0.00"}, {"id": "192", "name": "Shivananda Store", "lat": "12.98756619", "lon": "77.58040438", "stop_dist": "0.00"}, {"id": "9001", "name": "Sindhi High School Srikanta layout", "lat": "12.98771240", "lon": "77.58066483", "stop_dist": "0.00"}, {"id": "2191", "name": "Sriramapura 5th Cross", "lat": "12.99214333", "lon": "77.56644776", "stop_dist": "0.00"}, {"id": "10834", "name": "Srirampura 7th Main", "lat": "12.98867093", "lon": "77.56654971", "stop_dist": "0.00"}, {"id": "2166", "name": "Srirampura Chowdeshwari Temple", "lat": "12.99473270", "lon": "77.56638293", "stop_dist": "0.00"}, {"id": "2183", "name": "Srirampura Gandhi School", "lat": "12.98725450", "lon": "77.56771671", "stop_dist": "0.00"}, {"id": "202", "name": "Sujatha Theatre", "lat": "12.98264395", "lon": "77.56233968", "stop_dist": "0.00"}, {"id": "265", "name": "Swastik Sheshadripuram College", "lat": "12.98826273", "lon": "77.57429750", "stop_dist": "0.00"}, {"id": "12712", "name": "The Lalit Ashok Kumarkrupa Road", "lat": "12.99202087", "lon": "77.58306473", "stop_dist": "0.00"}, {"id": "342", "name": "Town Hall", "lat": "12.96357668", "lon": "77.58426144", "stop_dist": "0.00"}, {"id": "2147", "name": "Vaiyali Kaval", "lat": "13.00207964", "lon": "77.57849710", "stop_dist": "0.00"}, {"id": "188", "name": "Vinayaka Talkies KR Market", "lat": "12.96380068", "lon": "77.56833112", "stop_dist": "0.00"}]