[{"id": "77", "name": "Ananda Ashrama Bannerughatta Road", "lat": "12.92725733", "lon": "77.60068870", "stop_dist": "0.00"}, {"id": "2760", "name": "Banashankari Hunasemara", "lat": "12.91980957", "lon": "77.57411870", "stop_dist": "0.00"}, {"id": "1542", "name": "Banashankari Kaverinagara", "lat": "12.91979690", "lon": "77.56921479", "stop_dist": "0.00"}, {"id": "4140", "name": "Banashankari TTMC", "lat": "12.91739812", "lon": "77.57296353", "stop_dist": "0.00"}, {"id": "83", "name": "Bilekahalli", "lat": "12.90077134", "lon": "77.60110669", "stop_dist": "0.00"}, {"id": "9491", "name": "BTM Layout 12th Main 7th Cross", "lat": "12.91403342", "lon": "77.61003166", "stop_dist": "0.00"}, {"id": "1430", "name": "BTM Layout 16th Main", "lat": "12.91663359", "lon": "77.60891085", "stop_dist": "0.00"}, {"id": "1428", "name": "BTM Layout 16th Main Hopcoms", "lat": "12.91967484", "lon": "77.61038853", "stop_dist": "0.00"}, {"id": "21", "name": "BTM Layout Water Tank", "lat": "12.91669366", "lon": "77.60684366", "stop_dist": "0.00"}, {"id": "9390", "name": "Byrasandra Convent School Jayanagara", "lat": "12.93549124", "lon": "77.59001165", "stop_dist": "0.00"}, {"id": "2917", "name": "Carmel Convent Jayanagara", "lat": "12.92633355", "lon": "77.59732896", "stop_dist": "0.00"}, {"id": "1449", "name": "Chikka Adugodi", "lat": "12.92903833", "lon": "77.60946833", "stop_dist": "0.00"}, {"id": "11241", "name": "CS-Mantri Elite Apartment", "lat": "12.90545032", "lon": "77.60096379", "stop_dist": "0.00"}, {"id": "11205", "name": "CS-Shopper Stop Mico Layout", "lat": "12.91191315", "lon": "77.59983659", "stop_dist": "0.00"}, {"id": "5175", "name": "Dalmia Circle", "lat": "12.90714711", "lon": "77.59510517", "stop_dist": "0.00"}, {"id": "2764", "name": "Deepak Nursing Home Banashankari", "lat": "12.92514048", "lon": "77.57695313", "stop_dist": "0.00"}, {"id": "11340", "name": "Depot-04 Gate  Jayanagara", "lat": "12.92521222", "lon": "77.59351864", "stop_dist": "0.00"}, {"id": "9108", "name": "Gurappanapalya", "lat": "12.91903206", "lon": "77.60018259", "stop_dist": "0.00"}, {"id": "78", "name": "IBM Bannerughatta Road", "lat": "12.92522667", "lon": "77.60055896", "stop_dist": "0.00"}, {"id": "10095", "name": "Iliyas Nagara", "lat": "12.90862033", "lon": "77.57042617", "stop_dist": "0.00"}, {"id": "12681", "name": "Indira Gandhi Children Hospital", "lat": "12.93816283", "lon": "77.59269118", "stop_dist": "0.00"}, {"id": "776", "name": "Indiragandhi Circle RV Dentral college", "lat": "12.91096642", "lon": "77.57877829", "stop_dist": "0.00"}, {"id": "712", "name": "Jaraganahalli Cross", "lat": "12.90156673", "lon": "77.57328574", "stop_dist": "0.00"}, {"id": "10207", "name": "Jayadeva Hospital", "lat": "12.91681903", "lon": "77.60027781", "stop_dist": "0.00"}, {"id": "5369", "name": "Jayanagara 18th Main", "lat": "12.92325741", "lon": "77.58927203", "stop_dist": "0.00"}, {"id": "9372", "name": "Jayanagara 38th Cross", "lat": "12.92107958", "lon": "77.58380770", "stop_dist": "0.00"}, {"id": "2950", "name": "Jayanagara 3rd Block", "lat": "12.93185791", "lon": "77.58383236", "stop_dist": "0.00"}, {"id": "6202", "name": "Jayanagara 40th Cross", "lat": "12.91987387", "lon": "77.58067488", "stop_dist": "0.00"}, {"id": "323", "name": "Jayanagara 4th T Block", "lat": "12.92306884", "lon": "77.59343565", "stop_dist": "0.00"}, {"id": "12", "name": "Jayanagara 5th Block", "lat": "12.91730831", "lon": "77.58357173", "stop_dist": "0.00"}, {"id": "8688", "name": "Jayanagara 6th Block", "lat": "12.93092037", "lon": "77.57829778", "stop_dist": "0.00"}, {"id": "7436", "name": "Jayanagara 8th Block", "lat": "12.92389072", "lon": "77.58026719", "stop_dist": "0.00"}, {"id": "322", "name": "Jayanagara 9th Block", "lat": "12.91968893", "lon": "77.59247305", "stop_dist": "0.00"}, {"id": "2929", "name": "Jayanagara Church", "lat": "12.92828300", "lon": "77.58746408", "stop_dist": "0.00"}, {"id": "18", "name": "Jayanagara East End", "lat": "12.91684059", "lon": "77.59719395", "stop_dist": "0.00"}, {"id": "15474", "name": "Jayanagara Metro Station Arrival", "lat": "12.92968516", "lon": "77.58024004", "stop_dist": "0.00"}, {"id": "15475", "name": "Jayanagara Metro Station Depature", "lat": "12.92963092", "lon": "77.58024037", "stop_dist": "0.00"}, {"id": "9206", "name": "Jayanagara Pump House", "lat": "12.92170910", "lon": "77.59710610", "stop_dist": "0.00"}, {"id": "5565", "name": "Jayanagara Telephone Exchange", "lat": "12.92374301", "lon": "77.58371115", "stop_dist": "0.00"}, {"id": "2937", "name": "Jayanagara TTMC", "lat": "12.92850403", "lon": "77.58423632", "stop_dist": "0.00"}, {"id": "768", "name": "JP Nagara 15th Cross", "lat": "12.90714918", "lon": "77.58563153", "stop_dist": "0.00"}, {"id": "775", "name": "JP Nagara 1st Phase", "lat": "12.91132728", "lon": "77.57458276", "stop_dist": "0.00"}, {"id": "81", "name": "JP Nagara 3rd Phase", "lat": "12.90816990", "lon": "77.60041709", "stop_dist": "0.00"}, {"id": "710", "name": "JP Nagara 4th Phase", "lat": "12.90624011", "lon": "77.59451897", "stop_dist": "0.00"}, {"id": "716", "name": "JP Nagara 5th Phase", "lat": "12.90643060", "lon": "77.59046400", "stop_dist": "0.00"}, {"id": "648", "name": "JP Nagara 6th Phase", "lat": "12.90655206", "lon": "77.57763641", "stop_dist": "0.00"}, {"id": "11312", "name": "JP Nagara Food World", "lat": "12.91505042", "lon": "77.58592866", "stop_dist": "0.00"}, {"id": "5160", "name": "JP Nagara Water Tank", "lat": "12.91387135", "lon": "77.59504885", "stop_dist": "0.00"}, {"id": "11421", "name": "Kalyani Magnum JP Nagara", "lat": "12.90177046", "lon": "77.59494625", "stop_dist": "0.00"}, {"id": "11239", "name": "LIC Colony Jayanagara", "lat": "12.92863684", "lon": "77.59108990", "stop_dist": "0.00"}, {"id": "2953", "name": "Madhavan Park Jayanagara 2nd Stage", "lat": "12.93646289", "lon": "77.58394684", "stop_dist": "0.00"}, {"id": "5926", "name": "Marenahalli JP Nagara", "lat": "12.91550533", "lon": "77.58571744", "stop_dist": "0.00"}, {"id": "7391", "name": "Marenahalli Petrol Bunk Ragigudda", "lat": "12.91701380", "lon": "77.58865178", "stop_dist": "0.00"}, {"id": "80", "name": "MICO Layout Checkpost", "lat": "12.91394928", "lon": "77.60005281", "stop_dist": "0.00"}, {"id": "6259", "name": "Milk Booth JP Nagara", "lat": "12.91006741", "lon": "77.59518027", "stop_dist": "0.00"}, {"id": "582", "name": "Monotype Corporation", "lat": "12.92181277", "lon": "77.57052222", "stop_dist": "0.00"}, {"id": "2943", "name": "Nanda Talkies", "lat": "12.93302905", "lon": "77.58007632", "stop_dist": "0.00"}, {"id": "5069", "name": "NS Palya JP Nagara", "lat": "12.90862426", "lon": "77.60331608", "stop_dist": "0.00"}, {"id": "7188", "name": "Oxford College", "lat": "12.90512352", "lon": "77.58577108", "stop_dist": "0.00"}, {"id": "17", "name": "Ragigudda Temple", "lat": "12.91693403", "lon": "77.59324430", "stop_dist": "0.00"}, {"id": "2955", "name": "Rani Saraladevi High School", "lat": "12.93889816", "lon": "77.58529240", "stop_dist": "0.00"}, {"id": "7435", "name": "Rose Garden Jayanagara", "lat": "12.92786829", "lon": "77.58023501", "stop_dist": "0.00"}, {"id": "728", "name": "Royal School JP nagara", "lat": "12.90042919", "lon": "77.58582176", "stop_dist": "0.00"}, {"id": "771", "name": "RV Dental College JP Nagara", "lat": "12.91137269", "lon": "77.58563083", "stop_dist": "0.00"}, {"id": "11275", "name": "Sagar Hospital Bannerughatta Road", "lat": "12.92847999", "lon": "77.59962469", "stop_dist": "0.00"}, {"id": "10", "name": "Sangam Circle", "lat": "12.91703282", "lon": "77.57840196", "stop_dist": "0.00"}, {"id": "350", "name": "Sanjay Gandhi Hospital Jayanagara", "lat": "12.92710589", "lon": "77.59296362", "stop_dist": "0.00"}, {"id": "12682", "name": "Sanjay Gandhi Inst of Trauma", "lat": "12.93594607", "lon": "77.59275019", "stop_dist": "0.00"}, {"id": "5084", "name": "Sarakki", "lat": "12.90942689", "lon": "77.57284284", "stop_dist": "0.00"}, {"id": "11269", "name": "Shantinikethan School Bilekahalli", "lat": "12.89982133", "lon": "77.60228209", "stop_dist": "0.00"}, {"id": "4573", "name": "Shastri Bakery", "lat": "12.92329858", "lon": "77.57351339", "stop_dist": "0.00"}, {"id": "2780", "name": "South End Circle", "lat": "12.93707400", "lon": "77.57967376", "stop_dist": "0.00"}, {"id": "1453", "name": "Tavarekere Aladamara", "lat": "12.92221000", "lon": "77.61053833", "stop_dist": "0.00"}, {"id": "1451", "name": "Tavarekere Mori", "lat": "12.92501923", "lon": "77.60887461", "stop_dist": "0.00"}, {"id": "5079", "name": "Vinayakanagara JP Nagara", "lat": "12.89937687", "lon": "77.59140640", "stop_dist": "0.00"}, {"id": "580", "name": "Yarabnagara", "lat": "12.91572500", "lon": "77.56937167", "stop_dist": "0.00"}, {"id": "4141", "name": "Yediyuru Jayanagara 6th Block", "lat": "12.93080143", "lon": "77.57616340", "stop_dist": "0.00"}]