[
  {
    "stop_id": "15270",
    "stop_name": "Ernst and Young Garudacharapalya",
    "lat": "12.99206269",
    "lon": "77.70343959",
    "num_shelters_side_1": "",
    "stop_distance_side_1": "",
    "num_shelters_side_2": "",
    "stop_distance_side_2": "",
    "space_around": "",
    "ward_name": "Garudachar Playa",
    "ward_number": 82
  },
  {
    "stop_id": "6853",
    "stop_name": "Abbaiah Layout",
    "lat": "12.97932654",
    "lon": "77.68081784",
    "num_shelters_side_1": "",
    "stop_distance_side_1": "",
    "num_shelters_side_2": "",
    "stop_distance_side_2": "",
    "space_around": "",
    "ward_name": "Vijnana Nagar",
    "ward_number": 81
  },
  {
    "stop_id": "1699",
    "stop_name": "Aduru Bidrahalli",
    "lat": "13.05552872",
    "lon": "77.70571225",
    "num_shelters_side_1": "",
    "stop_distance_side_1": "",
    "num_shelters_side_2": "",
    "stop_distance_side_2": "",
    "space_around": "",
    "ward_name": "Outside BBMP Limits",
    "ward_number": "Outside BBMP Limits"
  },
  {
    "stop_id": "8850",
    "stop_name": "Ajjagondanahalli",
    "lat": "12.95708745",
    "lon": "77.76840001",
    "num_shelters_side_1": "",
    "stop_distance_side_1": "",
    "num_shelters_side_2": "",
    "stop_distance_side_2": "",
    "space_around": "",
    "ward_name": "Outside BBMP Limits",
    "ward_number": "Outside BBMP Limits"
  },
  {
    "stop_id": "1759",
    "stop_name": "Akshayanagara",
    "lat": "13.02072222",
    "lon": "77.68338951",
    "num_shelters_side_1": "",
    "stop_distance_side_1": "",
    "num_shelters_side_2": "",
    "stop_distance_side_2": "",
    "space_around": "",
    "ward_name": "Ramamurthy Nagar",
    "ward_number": 26
  },
  {
    "stop_id": "12215",
    "stop_name": "Alfa College Chikka Gubbi",
    "lat": "13.07698840",
    "lon": "77.66201223",
    "num_shelters_side_1": "",
    "stop_distance_side_1": "",
    "num_shelters_side_2": "",
    "stop_distance_side_2": "",
    "space_around": "",
    "ward_name": "Outside BBMP Limits",
    "ward_number": "Outside BBMP Limits"
  },
  {
    "stop_id": "2128",
    "stop_name": "Ambedkarnagara",
    "lat": "12.89901684",
    "lon": "77.71313221",
    "num_shelters_side_1": "",
    "stop_distance_side_1": "",
    "num_shelters_side_2": "",
    "stop_distance_side_2": "",
    "space_around": "",
    "ward_name": "Outside BBMP Limits",
    "ward_number": "Outside BBMP Limits"
  },
  {
    "stop_id": "11414",
    "stop_name": "AMD India Pvt Ltd Whitefield",
    "lat": "12.97500347",
    "lon": "77.72545852",
    "num_shelters_side_1": "",
    "stop_distance_side_1": "",
    "num_shelters_side_2": "",
    "stop_distance_side_2": "",
    "space_around": "",
    "ward_name": "Dodda Nekkundi",
    "ward_number": 85
  },
  {
    "stop_id": "1717",
    "stop_name": "Amogha Layout",
    "lat": "13.07508963",
    "lon": "77.71806440",
    "num_shelters_side_1": "",
    "stop_distance_side_1": "",
    "num_shelters_side_2": "",
    "stop_distance_side_2": "",
    "space_around": "",
    "ward_name": "Outside BBMP Limits",
    "ward_number": "Outside BBMP Limits"
  },
  {
    "stop_id": "6980",
    "stop_name": "Amritha Engineering College Kasavanahalli",
    "lat": "12.89679698",
    "lon": "77.67519660",
    "num_shelters_side_1": "",
    "stop_distance_side_1": "",
    "num_shelters_side_2": "",
    "stop_distance_side_2": "",
    "space_around": "",
    "ward_name": "Bellanduru",
    "ward_number": 150
  },
  {
    "stop_id": "5517",
    "stop_name": "Anagalipura",
    "lat": "13.07303285",
    "lon": "77.67888397",
    "num_shelters_side_1": "",
    "stop_distance_side_1": "",
    "num_shelters_side_2": "",
    "stop_distance_side_2": "",
    "space_around": "",
    "ward_name": "Outside BBMP Limits",
    "ward_number": "Outside BBMP Limits"
  },
  {
    "stop_id": "6831",
    "stop_name": "Anagalpura Cross",
    "lat": "13.06171179",
    "lon": "77.68666774",
    "num_shelters_side_1": "",
    "stop_distance_side_1": "",
    "num_shelters_side_2": "",
    "stop_distance_side_2": "",
    "space_around": "",
    "ward_name": "Outside BBMP Limits",
    "ward_number": "Outside BBMP Limits"
  },
  {
    "stop_id": "1689",
    "stop_name": "Anandapura",
    "lat": "13.02422515",
    "lon": "77.69285292",
    "num_shelters_side_1": "",
    "stop_distance_side_1": "",
    "num_shelters_side_2": "",
    "stop_distance_side_2": "",
    "space_around": "",
    "ward_name": "Ramamurthy Nagar",
    "ward_number": 26
  },
  {
    "stop_id": "15595",
    "stop_name": "AOL Head Strong ORR",
    "lat": "12.92010654",
    "lon": "77.68765479",
    "num_shelters_side_1": "",
    "stop_distance_side_1": "",
    "num_shelters_side_2": "",
    "stop_distance_side_2": "",
    "space_around": "",
    "ward_name": "Bellanduru",
    "ward_number": 150
  },
  {
    "stop_id": "9797",
    "stop_name": "Ashwathpura Marathahalli",
    "lat": "12.96118954",
    "lon": "77.70406991",
    "num_shelters_side_1": "",
    "stop_distance_side_1": "",
    "num_shelters_side_2": "",
    "stop_distance_side_2": "",
    "space_around": "",
    "ward_name": "Dodda Nekkundi",
    "ward_number": 85
  },
  {
    "stop_id": "5706",
    "stop_name": "Avalahalli Hoskote",
    "lat": "13.03534724",
    "lon": "77.73549132",
    "num_shelters_side_1": "",
    "stop_distance_side_1": "",
    "num_shelters_side_2": "",
    "stop_distance_side_2": "",
    "space_around": "",
    "ward_name": "Outside BBMP Limits",
    "ward_number": "Outside BBMP Limits"
  },
  {
    "stop_id": "15936",
    "stop_name": "Ayyappanagara Hoodi",
    "lat": "13.00150918",
    "lon": "77.71445006",
    "num_shelters_side_1": "",
    "stop_distance_side_1": "",
    "num_shelters_side_2": "",
    "stop_distance_side_2": "",
    "space_around": "",
    "ward_name": "Hudi",
    "ward_number": 54
  },
  {
    "stop_id": "2030",
    "stop_name": "Ayyappanagara KR Puram",
    "lat": "13.00450683",
    "lon": "77.71239878",
    "num_shelters_side_1": "",
    "stop_distance_side_1": "",
    "num_shelters_side_2": "",
    "stop_distance_side_2": "",
    "space_around": "",
    "ward_name": "Basavanapura",
    "ward_number": 53
  },
  {
    "stop_id": "2029",
    "stop_name": "Ayyappanagara Sadaramangala",
    "lat": "13.00430618",
    "lon": "77.71001823",
    "num_shelters_side_1": "",
    "stop_distance_side_1": "",
    "num_shelters_side_2": "",
    "stop_distance_side_2": "",
    "space_around": "",
    "ward_name": "Basavanapura",
    "ward_number": 53
  },
  {
    "stop_id": "7233",
    "stop_name": "B Nagasandra",
    "lat": "12.94368121",
    "lon": "77.65362829",
    "num_shelters_side_1": "",
    "stop_distance_side_1": "",
    "num_shelters_side_2": "",
    "stop_distance_side_2": "",
    "space_around": "",
    "ward_name": "Bellanduru",
    "ward_number": 150
  },
  {
    "stop_id": "13953",
    "stop_name": "Bagmane World Technology Center Doddanekkundi",
    "lat": "12.98264851",
    "lon": "77.69301116",
    "num_shelters_side_1": "",
    "stop_distance_side_1": "",
    "num_shelters_side_2": "",
    "stop_distance_side_2": "",
    "space_around": "",
    "ward_name": "Vijnana Nagar",
    "ward_number": 81
  },
  {
    "stop_id": "8783",
    "stop_name": "Balagere Varthuru",
    "lat": "12.93962843",
    "lon": "77.72904128",
    "num_shelters_side_1": "",
    "stop_distance_side_1": "",
    "num_shelters_side_2": "",
    "stop_distance_side_2": "",
    "space_around": "",
    "ward_name": "Varthuru",
    "ward_number": 149
  },
  {
    "stop_id": "631",
    "stop_name": "Bandapura Gate",
    "lat": "13.04153526",
    "lon": "77.74428367",
    "num_shelters_side_1": "",
    "stop_distance_side_1": "",
    "num_shelters_side_2": "",
    "stop_distance_side_2": "",
    "space_around": "",
    "ward_name": "Outside BBMP Limits",
    "ward_number": "Outside BBMP Limits"
  },
  {
    "stop_id": "1735",
    "stop_name": "Bande Bommasandra",
    "lat": "13.07663952",
    "lon": "77.68071504",
    "num_shelters_side_1": "",
    "stop_distance_side_1": "",
    "num_shelters_side_2": "",
    "stop_distance_side_2": "",
    "space_around": "",
    "ward_name": "Outside BBMP Limits",
    "ward_number": "Outside BBMP Limits"
  },
  {
    "stop_id": "1716",
    "stop_name": "Bayyapannahalli",
    "lat": "13.07163802",
    "lon": "77.72080307",
    "num_shelters_side_1": "",
    "stop_distance_side_1": "",
    "num_shelters_side_2": "",
    "stop_distance_side_2": "",
    "space_around": "",
    "ward_name": "Outside BBMP Limits",
    "ward_number": "Outside BBMP Limits"
  },
  {
    "stop_id": "2595",
    "stop_name": "Bellanduru",
    "lat": "12.92472569",
    "lon": "77.67429431",
    "num_shelters_side_1": "",
    "stop_distance_side_1": "",
    "num_shelters_side_2": "",
    "stop_distance_side_2": "",
    "space_around": "",
    "ward_name": "Bellanduru",
    "ward_number": 150
  },
  {
    "stop_id": "2123",
    "stop_name": "Bellanduru Gate SJP Road",
    "lat": "12.91857787",
    "lon": "77.66991416",
    "num_shelters_side_1": "",
    "stop_distance_side_1": "",
    "num_shelters_side_2": "",
    "stop_distance_side_2": "",
    "space_around": "",
    "ward_name": "Bellanduru",
    "ward_number": 150
  },
  {
    "stop_id": "2047",
    "stop_name": "Bellathur",
    "lat": "13.00410489",
    "lon": "77.75691881",
    "num_shelters_side_1": "",
    "stop_distance_side_1": "",
    "num_shelters_side_2": "",
    "stop_distance_side_2": "",
    "space_around": "",
    "ward_name": "Hudi",
    "ward_number": 54
  },
  {
    "stop_id": "2094",
    "stop_name": "Bellathur Colony",
    "lat": "12.99960446",
    "lon": "77.75268462",
    "num_shelters_side_1": "",
    "stop_distance_side_1": "",
    "num_shelters_side_2": "",
    "stop_distance_side_2": "",
    "space_around": "",
    "ward_name": "Hudi",
    "ward_number": 54
  },
  {
    "stop_id": "6908",
    "stop_name": "BEML Gate Kundanahalli",
    "lat": "12.96097783",
    "lon": "77.71652609",
    "num_shelters_side_1": "",
    "stop_distance_side_1": "",
    "num_shelters_side_2": "",
    "stop_distance_side_2": "",
    "space_around": "",
    "ward_name": "Dodda Nekkundi",
    "ward_number": 85
  },
  {
    "stop_id": "5392",
    "stop_name": "Bendiganahalli Hoskote",
    "lat": "13.06710150",
    "lon": "77.75759132",
    "num_shelters_side_1": "",
    "stop_distance_side_1": "",
    "num_shelters_side_2": "",
    "stop_distance_side_2": "",
    "space_around": "",
    "ward_name": "Outside BBMP Limits",
    "ward_number": "Outside BBMP Limits"
  },
  {
    "stop_id": "6294",
    "stop_name": "Bhakthi Yoga Ashrama",
    "lat": "13.02261580",
    "lon": "77.68929630",
    "num_shelters_side_1": "",
    "stop_distance_side_1": "",
    "num_shelters_side_2": "",
    "stop_distance_side_2": "",
    "space_around": "",
    "ward_name": "Ramamurthy Nagar",
    "ward_number": 26
  },
  {
    "stop_id": "9753",
    "stop_name": "Bhoganahalli",
    "lat": "12.92643830",
    "lon": "77.70108193",
    "num_shelters_side_1": "",
    "stop_distance_side_1": "",
    "num_shelters_side_2": "",
    "stop_distance_side_2": "",
    "space_around": "",
    "ward_name": "Bellanduru",
    "ward_number": 150
  },
  {
    "stop_id": "2437",
    "stop_name": "Bible Cross",
    "lat": "13.07127889",
    "lon": "77.65162195",
    "num_shelters_side_1": "",
    "stop_distance_side_1": "",
    "num_shelters_side_2": "",
    "stop_distance_side_2": "",
    "space_around": "",
    "ward_name": "Hudi",
    "ward_number": 54
  },
  {
    "stop_id": "1702",
    "stop_name": "Bidrahalli",
    "lat": "13.05690943",
    "lon": "77.71508908",
    "num_shelters_side_1": "",
    "stop_distance_side_1": "",
    "num_shelters_side_2": "",
    "stop_distance_side_2": "",
    "space_around": "",
    "ward_name": "Outside BBMP Limits",
    "ward_number": "Outside BBMP Limits"
  },
  {
    "stop_id": "7385",
    "stop_name": "Big Bazar ITPL",
    "lat": "12.98822336",
    "lon": "77.73193404",
    "num_shelters_side_1": "",
    "stop_distance_side_1": "",
    "num_shelters_side_2": "",
    "stop_distance_side_2": "",
    "space_around": "",
    "ward_name": "Hudi",
    "ward_number": 54
  },
  {
    "stop_id": "2406",
    "stop_name": "Bileshivale",
    "lat": "13.05451211",
    "lon": "77.67101244",
    "num_shelters_side_1": "",
    "stop_distance_side_1": "",
    "num_shelters_side_2": "",
    "stop_distance_side_2": "",
    "space_around": "",
    "ward_name": "Hudi",
    "ward_number": 54
  },
  {
    "stop_id": "2338",
    "stop_name": "Birla Hurlur Road",
    "lat": "12.89406503",
    "lon": "77.65712101",
    "num_shelters_side_1": "",
    "stop_distance_side_1": "",
    "num_shelters_side_2": "",
    "stop_distance_side_2": "",
    "space_around": "",
    "ward_name": "Mangammanapalya",
    "ward_number": 190
  },
  {
    "stop_id": "11460",
    "stop_name": "BM English School Kannuru",
    "lat": "13.10691453",
    "lon": "77.66969740",
    "num_shelters_side_1": "",
    "stop_distance_side_1": "",
    "num_shelters_side_2": "",
    "stop_distance_side_2": "",
    "space_around": "",
    "ward_name": "Outside BBMP Limits",
    "ward_number": "Outside BBMP Limits"
  },
  {
    "stop_id": "5383",
    "stop_name": "Bommenahalli",
    "lat": "13.07103020",
    "lon": "77.74503887",
    "num_shelters_side_1": "",
    "stop_distance_side_1": "",
    "num_shelters_side_2": "",
    "stop_distance_side_2": "",
    "space_around": "",
    "ward_name": "Outside BBMP Limits",
    "ward_number": "Outside BBMP Limits"
  },
  {
    "stop_id": "6917",
    "stop_name": "BPL ITPL",
    "lat": "12.98530919",
    "lon": "77.74801791",
    "num_shelters_side_1": "",
    "stop_distance_side_1": "",
    "num_shelters_side_2": "",
    "stop_distance_side_2": "",
    "space_around": "",
    "ward_name": "Kadugodi",
    "ward_number": 83
  },
  {
    "stop_id": "11729",
    "stop_name": "Brand Factory Marathahalli Bridge",
    "lat": "12.95639304",
    "lon": "77.69682527",
    "num_shelters_side_1": "",
    "stop_distance_side_1": "",
    "num_shelters_side_2": "",
    "stop_distance_side_2": "",
    "space_around": "",
    "ward_name": "Marathahalli",
    "ward_number": 86
  },
  {
    "stop_id": "6941",
    "stop_name": "Brook Steel ESI ITPL",
    "lat": "12.99310549",
    "lon": "77.70546734",
    "num_shelters_side_1": "",
    "stop_distance_side_1": "",
    "num_shelters_side_2": "",
    "stop_distance_side_2": "",
    "space_around": "",
    "ward_name": "Hudi",
    "ward_number": 54
  },
  {
    "stop_id": "138",
    "stop_name": "Brooke Bond",
    "lat": "12.96396766",
    "lon": "77.74832851",
    "num_shelters_side_1": "",
    "stop_distance_side_1": "",
    "num_shelters_side_2": "",
    "stop_distance_side_2": "",
    "space_around": "",
    "ward_name": "Hagadur",
    "ward_number": 84
  },
  {
    "stop_id": "1673",
    "stop_name": "Budigere Cross",
    "lat": "13.04585768",
    "lon": "77.75026017",
    "num_shelters_side_1": "",
    "stop_distance_side_1": "",
    "num_shelters_side_2": "",
    "stop_distance_side_2": "",
    "space_around": "",
    "ward_name": "Outside BBMP Limits",
    "ward_number": "Outside BBMP Limits"
  },
  {
    "stop_id": "5871",
    "stop_name": "Budigere Cross Hoskote",
    "lat": "13.04656746",
    "lon": "77.75014758",
    "num_shelters_side_1": "",
    "stop_distance_side_1": "",
    "num_shelters_side_2": "",
    "stop_distance_side_2": "",
    "space_around": "",
    "ward_name": "Outside BBMP Limits",
    "ward_number": "Outside BBMP Limits"
  },
  {
    "stop_id": "1177",
    "stop_name": "Byrathi Bande",
    "lat": "13.07782161",
    "lon": "77.65341241",
    "num_shelters_side_1": "",
    "stop_distance_side_1": "",
    "num_shelters_side_2": "",
    "stop_distance_side_2": "",
    "space_around": "",
    "ward_name": "Hudi",
    "ward_number": 54
  },
  {
    "stop_id": "1189",
    "stop_name": "Byrathi Cross Hennuru",
    "lat": "13.05698661",
    "lon": "77.64836274",
    "num_shelters_side_1": "",
    "stop_distance_side_1": "",
    "num_shelters_side_2": "",
    "stop_distance_side_2": "",
    "space_around": "",
    "ward_name": "Hudi",
    "ward_number": 54
  },
  {
    "stop_id": "12198",
    "stop_name": "Byrathi Hennuru",
    "lat": "13.05601970",
    "lon": "77.65196398",
    "num_shelters_side_1": "",
    "stop_distance_side_1": "",
    "num_shelters_side_2": "",
    "stop_distance_side_2": "",
    "space_around": "",
    "ward_name": "Hudi",
    "ward_number": 54
  },
  {
    "stop_id": "10963",
    "stop_name": "CAP Gemini Garudacharpalya",
    "lat": "12.99166801",
    "lon": "77.70286627",
    "num_shelters_side_1": "",
    "stop_distance_side_1": "",
    "num_shelters_side_2": "",
    "stop_distance_side_2": "",
    "space_around": "",
    "ward_name": "Garudachar Playa",
    "ward_number": 82
  },
  {
    "stop_id": "10231",
    "stop_name": "CAP Gemini Prestige Shanthiniketan",
    "lat": "12.98954580",
    "lon": "77.72889644",
    "num_shelters_side_1": "",
    "stop_distance_side_1": "",
    "num_shelters_side_2": "",
    "stop_distance_side_2": "",
    "space_around": "",
    "ward_name": "Hudi",
    "ward_number": 54
  },
  {
    "stop_id": "3632",
    "stop_name": "Carmelram Gate",
    "lat": "12.90343982",
    "lon": "77.70391301",
    "num_shelters_side_1": "",
    "stop_distance_side_1": "",
    "num_shelters_side_2": "",
    "stop_distance_side_2": "",
    "space_around": "",
    "ward_name": "Outside BBMP Limits",
    "ward_number": "Outside BBMP Limits"
  },
  {
    "stop_id": "12542",
    "stop_name": "Carmelram Railway Station",
    "lat": "12.90719613",
    "lon": "77.70536877",
    "num_shelters_side_1": "",
    "stop_distance_side_1": "",
    "num_shelters_side_2": "",
    "stop_distance_side_2": "",
    "space_around": "",
    "ward_name": "Bellanduru",
    "ward_number": 150
  },
  {
    "stop_id": "6962",
    "stop_name": "Carmelram School Railway Gate",
    "lat": "12.90950467",
    "lon": "77.70589515",
    "num_shelters_side_1": "",
    "stop_distance_side_1": "",
    "num_shelters_side_2": "",
    "stop_distance_side_2": "",
    "space_around": "",
    "ward_name": "Bellanduru",
    "ward_number": 150
  },
  {
    "stop_id": "2093",
    "stop_name": "Central Bank Kadugodi",
    "lat": "12.99774694",
    "lon": "77.75781477",
    "num_shelters_side_1": "",
    "stop_distance_side_1": "",
    "num_shelters_side_2": "",
    "stop_distance_side_2": "",
    "space_around": "",
    "ward_name": "Kadugodi",
    "ward_number": 83
  },
  {
    "stop_id": "2082",
    "stop_name": "Chaithanya Samarpan apartment",
    "lat": "13.02183505",
    "lon": "77.76203544",
    "num_shelters_side_1": "",
    "stop_distance_side_1": "",
    "num_shelters_side_2": "",
    "stop_distance_side_2": "",
    "space_around": "",
    "ward_name": "Outside BBMP Limits",
    "ward_number": "Outside BBMP Limits"
  },
  {
    "stop_id": "7237",
    "stop_name": "Challaghatta B Nagasandra",
    "lat": "12.94609986",
    "lon": "77.64908127",
    "num_shelters_side_1": "",
    "stop_distance_side_1": "",
    "num_shelters_side_2": "",
    "stop_distance_side_2": "",
    "space_around": "",
    "ward_name": "Konena Agrahara",
    "ward_number": 113
  },
  {
    "stop_id": "2278",
    "stop_name": "Channasandra",
    "lat": "12.98332232",
    "lon": "77.76815321",
    "num_shelters_side_1": "",
    "stop_distance_side_1": "",
    "num_shelters_side_2": "",
    "stop_distance_side_2": "",
    "space_around": "",
    "ward_name": "Kadugodi",
    "ward_number": 83
  },
  {
    "stop_id": "2279",
    "stop_name": "Channasandra MVJ College",
    "lat": "12.98285859",
    "lon": "77.76129262",
    "num_shelters_side_1": "",
    "stop_distance_side_1": "",
    "num_shelters_side_2": "",
    "stop_distance_side_2": "",
    "space_around": "",
    "ward_name": "Kadugodi",
    "ward_number": 83
  },
  {
    "stop_id": "633",
    "stop_name": "Cheemasandra Budigere Cross",
    "lat": "13.03891867",
    "lon": "77.74057609",
    "num_shelters_side_1": "",
    "stop_distance_side_1": "",
    "num_shelters_side_2": "",
    "stop_distance_side_2": "",
    "space_around": "",
    "ward_name": "Outside BBMP Limits",
    "ward_number": "Outside BBMP Limits"
  },
  {
    "stop_id": "6815",
    "stop_name": "Chennanahalli",
    "lat": "13.03132814",
    "lon": "77.74300218",
    "num_shelters_side_1": "",
    "stop_distance_side_1": "",
    "num_shelters_side_2": "",
    "stop_distance_side_2": "",
    "space_around": "",
    "ward_name": "Outside BBMP Limits",
    "ward_number": "Outside BBMP Limits"
  },
  {
    "stop_id": "7066",
    "stop_name": "Chikka Banahalli",
    "lat": "13.01989737",
    "lon": "77.75140352",
    "num_shelters_side_1": "",
    "stop_distance_side_1": "",
    "num_shelters_side_2": "",
    "stop_distance_side_2": "",
    "space_around": "",
    "ward_name": "Outside BBMP Limits",
    "ward_number": "Outside BBMP Limits"
  },
  {
    "stop_id": "6959",
    "stop_name": "Chikka Bellanduru",
    "lat": "12.91227005",
    "lon": "77.71435216",
    "num_shelters_side_1": "",
    "stop_distance_side_1": "",
    "num_shelters_side_2": "",
    "stop_distance_side_2": "",
    "space_around": "",
    "ward_name": "Varthuru",
    "ward_number": 149
  },
  {
    "stop_id": "2028",
    "stop_name": "Chikka Devasandra KR Puram",
    "lat": "13.00442103",
    "lon": "77.70583134",
    "num_shelters_side_1": "",
    "stop_distance_side_1": "",
    "num_shelters_side_2": "",
    "stop_distance_side_2": "",
    "space_around": "",
    "ward_name": "Basavanapura",
    "ward_number": 53
  },
  {
    "stop_id": "12210",
    "stop_name": "Chikka Gubbi",
    "lat": "13.08050438",
    "lon": "77.66627423",
    "num_shelters_side_1": "",
    "stop_distance_side_1": "",
    "num_shelters_side_2": "",
    "stop_distance_side_2": "",
    "space_around": "",
    "ward_name": "Outside BBMP Limits",
    "ward_number": "Outside BBMP Limits"
  },
  {
    "stop_id": "2412",
    "stop_name": "Chikka Gubbi Cross",
    "lat": "13.08431180",
    "lon": "77.65428818",
    "num_shelters_side_1": "",
    "stop_distance_side_1": "",
    "num_shelters_side_2": "",
    "stop_distance_side_2": "",
    "space_around": "",
    "ward_name": "Outside BBMP Limits",
    "ward_number": "Outside BBMP Limits"
  },
  {
    "stop_id": "9586",
    "stop_name": "Chikka Nekkundi",
    "lat": "12.92984790",
    "lon": "77.76570104",
    "num_shelters_side_1": "",
    "stop_distance_side_1": "",
    "num_shelters_side_2": "",
    "stop_distance_side_2": "",
    "space_around": "",
    "ward_name": "Outside BBMP Limits",
    "ward_number": "Outside BBMP Limits"
  },
  {
    "stop_id": "2373",
    "stop_name": "Chikkanayakanahalli Dinne",
    "lat": "12.88392477",
    "lon": "77.69698080",
    "num_shelters_side_1": "",
    "stop_distance_side_1": "",
    "num_shelters_side_2": "",
    "stop_distance_side_2": "",
    "space_around": "",
    "ward_name": "Outside BBMP Limits",
    "ward_number": "Outside BBMP Limits"
  },
  {
    "stop_id": "5524",
    "stop_name": "Chikkanayakanahalli Huskuru Road",
    "lat": "12.89230973",
    "lon": "77.69445486",
    "num_shelters_side_1": "",
    "stop_distance_side_1": "",
    "num_shelters_side_2": "",
    "stop_distance_side_2": "",
    "space_around": "",
    "ward_name": "Outside BBMP Limits",
    "ward_number": "Outside BBMP Limits"
  },
  {
    "stop_id": "9790",
    "stop_name": "Chinnappanahalli",
    "lat": "12.96909704",
    "lon": "77.70622507",
    "num_shelters_side_1": "",
    "stop_distance_side_1": "",
    "num_shelters_side_2": "",
    "stop_distance_side_2": "",
    "space_around": "",
    "ward_name": "Dodda Nekkundi",
    "ward_number": 85
  },
  {
    "stop_id": "6992",
    "stop_name": "Chokkasandra Cross",
    "lat": "12.87352578",
    "lon": "77.73404024",
    "num_shelters_side_1": "",
    "stop_distance_side_1": "",
    "num_shelters_side_2": "",
    "stop_distance_side_2": "",
    "space_around": "",
    "ward_name": "Outside BBMP Limits",
    "ward_number": "Outside BBMP Limits"
  },
  {
    "stop_id": "2389",
    "stop_name": "Choodasandra",
    "lat": "12.88925510",
    "lon": "77.68133251",
    "num_shelters_side_1": "",
    "stop_distance_side_1": "",
    "num_shelters_side_2": "",
    "stop_distance_side_2": "",
    "space_around": "",
    "ward_name": "Outside BBMP Limits",
    "ward_number": "Outside BBMP Limits"
  },
  {
    "stop_id": "8972",
    "stop_name": "Christal House Learning School",
    "lat": "13.09439257",
    "lon": "77.65173197",
    "num_shelters_side_1": "",
    "stop_distance_side_1": "",
    "num_shelters_side_2": "",
    "stop_distance_side_2": "",
    "space_around": "",
    "ward_name": "Outside BBMP Limits",
    "ward_number": "Outside BBMP Limits"
  },
  {
    "stop_id": "2413",
    "stop_name": "Church Byrathibande",
    "lat": "13.08664096",
    "lon": "77.65489110",
    "num_shelters_side_1": "",
    "stop_distance_side_1": "",
    "num_shelters_side_2": "",
    "stop_distance_side_2": "",
    "space_around": "",
    "ward_name": "Outside BBMP Limits",
    "ward_number": "Outside BBMP Limits"
  },
  {
    "stop_id": "635",
    "stop_name": "Cipla Avalahalli",
    "lat": "13.03224368",
    "lon": "77.73126138",
    "num_shelters_side_1": "",
    "stop_distance_side_1": "",
    "num_shelters_side_2": "",
    "stop_distance_side_2": "",
    "space_around": "",
    "ward_name": "Outside BBMP Limits",
    "ward_number": "Outside BBMP Limits"
  },
  {
    "stop_id": "2067",
    "stop_name": "CMRIT College",
    "lat": "12.96765542",
    "lon": "77.71437320",
    "num_shelters_side_1": "",
    "stop_distance_side_1": "",
    "num_shelters_side_2": "",
    "stop_distance_side_2": "",
    "space_around": "",
    "ward_name": "Dodda Nekkundi",
    "ward_number": 85
  },
  {
    "stop_id": "2594",
    "stop_name": "CS-Eco Space Intel Ring Road",
    "lat": "12.92775040",
    "lon": "77.68052028",
    "num_shelters_side_1": "",
    "stop_distance_side_1": "",
    "num_shelters_side_2": "",
    "stop_distance_side_2": "",
    "space_around": "",
    "ward_name": "Bellanduru",
    "ward_number": 150
  },
  {
    "stop_id": "11467",
    "stop_name": "CS-Ernst and Young Garudacharapalya",
    "lat": "12.99218814",
    "lon": "77.70342886",
    "num_shelters_side_1": "",
    "stop_distance_side_1": "",
    "num_shelters_side_2": "",
    "stop_distance_side_2": "",
    "space_around": "",
    "ward_name": "Garudachar Playa",
    "ward_number": 82
  },
  {
    "stop_id": "11622",
    "stop_name": "CS-Poorva Fountain Apartment",
    "lat": "12.95837175",
    "lon": "77.70461977",
    "num_shelters_side_1": "",
    "stop_distance_side_1": "",
    "num_shelters_side_2": "",
    "stop_distance_side_2": "",
    "space_around": "",
    "ward_name": "Dodda Nekkundi",
    "ward_number": 85
  },
  {
    "stop_id": "11447",
    "stop_name": "CS-St Michael School Hennuru Bande",
    "lat": "13.05129689",
    "lon": "77.64528930",
    "num_shelters_side_1": "",
    "stop_distance_side_1": "",
    "num_shelters_side_2": "",
    "stop_distance_side_2": "",
    "space_around": "",
    "ward_name": "Horamavu",
    "ward_number": 25
  },
  {
    "stop_id": "11434",
    "stop_name": "CS-Tata Elexsi Brigade Teck Park",
    "lat": "12.98561498",
    "lon": "77.74061501",
    "num_shelters_side_1": "",
    "stop_distance_side_1": "",
    "num_shelters_side_2": "",
    "stop_distance_side_2": "",
    "space_around": "",
    "ward_name": "Garudachar Playa",
    "ward_number": 82
  },
  {
    "stop_id": "11763",
    "stop_name": "CS-TESC Tech Park Vydehi Hospital",
    "lat": "12.97450948",
    "lon": "77.72733741",
    "num_shelters_side_1": "",
    "stop_distance_side_1": "",
    "num_shelters_side_2": "",
    "stop_distance_side_2": "",
    "space_around": "",
    "ward_name": "Hagadur",
    "ward_number": 84
  },
  {
    "stop_id": "5630",
    "stop_name": "D Group Employees Layout",
    "lat": "13.09294679",
    "lon": "77.68534542",
    "num_shelters_side_1": "",
    "stop_distance_side_1": "",
    "num_shelters_side_2": "",
    "stop_distance_side_2": "",
    "space_around": "",
    "ward_name": "Outside BBMP Limits",
    "ward_number": "Outside BBMP Limits"
  },
  {
    "stop_id": "12273",
    "stop_name": "Dattatreya Peeta Doddagubbi",
    "lat": "13.06738937",
    "lon": "77.66464949",
    "num_shelters_side_1": "",
    "stop_distance_side_1": "",
    "num_shelters_side_2": "",
    "stop_distance_side_2": "",
    "space_around": "",
    "ward_name": "Horamavu",
    "ward_number": 25
  },
  {
    "stop_id": "5923",
    "stop_name": "Dell Domlur",
    "lat": "12.95129318",
    "lon": "77.63976072",
    "num_shelters_side_1": "",
    "stop_distance_side_1": "",
    "num_shelters_side_2": "",
    "stop_distance_side_2": "",
    "space_around": "",
    "ward_name": "Agaram",
    "ward_number": 114
  },
  {
    "stop_id": "2593",
    "stop_name": "Devarabisanahalli Cross",
    "lat": "12.93143035",
    "lon": "77.68688876",
    "num_shelters_side_1": "",
    "stop_distance_side_1": "",
    "num_shelters_side_2": "",
    "stop_distance_side_2": "",
    "space_around": "",
    "ward_name": "Bellanduru",
    "ward_number": 150
  },
  {
    "stop_id": "6967",
    "stop_name": "Devarabisanahalli Gear School",
    "lat": "12.91838371",
    "lon": "77.69758299",
    "num_shelters_side_1": "",
    "stop_distance_side_1": "",
    "num_shelters_side_2": "",
    "stop_distance_side_2": "",
    "space_around": "",
    "ward_name": "Bellanduru",
    "ward_number": 150
  },
  {
    "stop_id": "6974",
    "stop_name": "Devarabisanahalli last stop",
    "lat": "12.92401619",
    "lon": "77.69503557",
    "num_shelters_side_1": "",
    "stop_distance_side_1": "",
    "num_shelters_side_2": "",
    "stop_distance_side_2": "",
    "space_around": "",
    "ward_name": "Bellanduru",
    "ward_number": 150
  },
  {
    "stop_id": "2592",
    "stop_name": "Devarabisanahalli New Horizon College",
    "lat": "12.93531828",
    "lon": "77.69115796",
    "num_shelters_side_1": "",
    "stop_distance_side_1": "",
    "num_shelters_side_2": "",
    "stop_distance_side_2": "",
    "space_around": "",
    "ward_name": "Bellanduru",
    "ward_number": 150
  },
  {
    "stop_id": "9455",
    "stop_name": "Dinnur Kadugodi",
    "lat": "12.99158964",
    "lon": "77.75150209",
    "num_shelters_side_1": "",
    "stop_distance_side_1": "",
    "num_shelters_side_2": "",
    "stop_distance_side_2": "",
    "space_around": "",
    "ward_name": "Kadugodi",
    "ward_number": 83
  },
  {
    "stop_id": "1731",
    "stop_name": "Dodda Gubbi",
    "lat": "13.07092501",
    "lon": "77.67400680",
    "num_shelters_side_1": "",
    "stop_distance_side_1": "",
    "num_shelters_side_2": "",
    "stop_distance_side_2": "",
    "space_around": "",
    "ward_name": "Outside BBMP Limits",
    "ward_number": "Outside BBMP Limits"
  },
  {
    "stop_id": "1715",
    "stop_name": "Dodda Mori",
    "lat": "13.06539496",
    "lon": "77.71696200",
    "num_shelters_side_1": "",
    "stop_distance_side_1": "",
    "num_shelters_side_2": "",
    "stop_distance_side_2": "",
    "space_around": "",
    "ward_name": "Outside BBMP Limits",
    "ward_number": "Outside BBMP Limits"
  },
  {
    "stop_id": "2580",
    "stop_name": "Dodda Nekkundi",
    "lat": "12.97898227",
    "lon": "77.69516661",
    "num_shelters_side_1": "",
    "stop_distance_side_1": "",
    "num_shelters_side_2": "",
    "stop_distance_side_2": "",
    "space_around": "",
    "ward_name": "Dodda Nekkundi",
    "ward_number": 85
  },
  {
    "stop_id": "6938",
    "stop_name": "Dodda Nekkundi Cross",
    "lat": "12.95600618",
    "lon": "77.69178271",
    "num_shelters_side_1": "",
    "stop_distance_side_1": "",
    "num_shelters_side_2": "",
    "stop_distance_side_2": "",
    "space_around": "",
    "ward_name": "Dodda Nekkundi",
    "ward_number": 85
  },
  {
    "stop_id": "6814",
    "stop_name": "Doddabannahalli",
    "lat": "13.02394853",
    "lon": "77.74737954",
    "num_shelters_side_1": "",
    "stop_distance_side_1": "",
    "num_shelters_side_2": "",
    "stop_distance_side_2": "",
    "space_around": "",
    "ward_name": "Outside BBMP Limits",
    "ward_number": "Outside BBMP Limits"
  },
  {
    "stop_id": "4159",
    "stop_name": "Doddagattiganabbe",
    "lat": "13.03335664",
    "lon": "77.78551195",
    "num_shelters_side_1": "",
    "stop_distance_side_1": "",
    "num_shelters_side_2": "",
    "stop_distance_side_2": "",
    "space_around": "",
    "ward_name": "Outside BBMP Limits",
    "ward_number": "Outside BBMP Limits"
  },
  {
    "stop_id": "9694",
    "stop_name": "Doddakannalli Sarjapura Road",
    "lat": "12.90712619",
    "lon": "77.69565113",
    "num_shelters_side_1": "",
    "stop_distance_side_1": "",
    "num_shelters_side_2": "",
    "stop_distance_side_2": "",
    "space_around": "",
    "ward_name": "Bellanduru",
    "ward_number": 150
  },
  {
    "stop_id": "2352",
    "stop_name": "Doddamma Temple",
    "lat": "12.87847965",
    "lon": "77.69871903",
    "num_shelters_side_1": "",
    "stop_distance_side_1": "",
    "num_shelters_side_2": "",
    "stop_distance_side_2": "",
    "space_around": "",
    "ward_name": "Outside BBMP Limits",
    "ward_number": "Outside BBMP Limits"
  },
  {
    "stop_id": "1233",
    "stop_name": "Domlur Flyover",
    "lat": "12.95696427",
    "lon": "77.64140253",
    "num_shelters_side_1": "",
    "stop_distance_side_1": "",
    "num_shelters_side_2": "",
    "stop_distance_side_2": "",
    "space_around": "",
    "ward_name": "Domlur",
    "ward_number": 112
  },
  {
    "stop_id": "12082",
    "stop_name": "DRDO 2nd Sector Kempapura",
    "lat": "12.94445497",
    "lon": "77.66262844",
    "num_shelters_side_1": "",
    "stop_distance_side_1": "",
    "num_shelters_side_2": "",
    "stop_distance_side_2": "",
    "space_around": "",
    "ward_name": "Bellanduru",
    "ward_number": 150
  },
  {
    "stop_id": "1706",
    "stop_name": "East Point College Hirandahalli",
    "lat": "13.05014032",
    "lon": "77.71999897",
    "num_shelters_side_1": "",
    "stop_distance_side_1": "",
    "num_shelters_side_2": "",
    "stop_distance_side_2": "",
    "space_around": "",
    "ward_name": "Outside BBMP Limits",
    "ward_number": "Outside BBMP Limits"
  },
  {
    "stop_id": "15528",
    "stop_name": "ECO Space",
    "lat": "12.92789966",
    "lon": "77.68109813",
    "num_shelters_side_1": "",
    "stop_distance_side_1": "",
    "num_shelters_side_2": "",
    "stop_distance_side_2": "",
    "space_around": "",
    "ward_name": "Bellanduru",
    "ward_number": 150
  },
  {
    "stop_id": "5555",
    "stop_name": "EMC2",
    "lat": "12.98286708",
    "lon": "77.69288878",
    "num_shelters_side_1": "",
    "stop_distance_side_1": "",
    "num_shelters_side_2": "",
    "stop_distance_side_2": "",
    "space_around": "",
    "ward_name": "Vijnana Nagar",
    "ward_number": 81
  },
  {
    "stop_id": "6996",
    "stop_name": "Gandhipura White Field",
    "lat": "12.96970147",
    "lon": "77.75241271",
    "num_shelters_side_1": "",
    "stop_distance_side_1": "",
    "num_shelters_side_2": "",
    "stop_distance_side_2": "",
    "space_around": "",
    "ward_name": "Hagadur",
    "ward_number": 84
  },
  {
    "stop_id": "6298",
    "stop_name": "Garden City College TC Palya",
    "lat": "13.02443459",
    "lon": "77.70711690",
    "num_shelters_side_1": "",
    "stop_distance_side_1": "",
    "num_shelters_side_2": "",
    "stop_distance_side_2": "",
    "space_around": "",
    "ward_name": "K R Puram",
    "ward_number": 52
  },
  {
    "stop_id": "2633",
    "stop_name": "Garudacharpalya",
    "lat": "12.99402101",
    "lon": "77.70171069",
    "num_shelters_side_1": "",
    "stop_distance_side_1": "",
    "num_shelters_side_2": "",
    "stop_distance_side_2": "",
    "space_around": "",
    "ward_name": "Garudachar Playa",
    "ward_number": 82
  },
  {
    "stop_id": "11623",
    "stop_name": "GBJ Colony Gate Marathahalli",
    "lat": "12.95753271",
    "lon": "77.69134015",
    "num_shelters_side_1": "",
    "stop_distance_side_1": "",
    "num_shelters_side_2": "",
    "stop_distance_side_2": "",
    "space_around": "",
    "ward_name": "Dodda Nekkundi",
    "ward_number": 85
  },
  {
    "stop_id": "1197",
    "stop_name": "Geddalahalli Hennur Main Road",
    "lat": "13.04839588",
    "lon": "77.64544539",
    "num_shelters_side_1": "",
    "stop_distance_side_1": "",
    "num_shelters_side_2": "",
    "stop_distance_side_2": "",
    "space_around": "",
    "ward_name": "Horamavu",
    "ward_number": 25
  },
  {
    "stop_id": "12213",
    "stop_name": "Gollahalli Chikkagubbi",
    "lat": "13.08363493",
    "lon": "77.67537564",
    "num_shelters_side_1": "",
    "stop_distance_side_1": "",
    "num_shelters_side_2": "",
    "stop_distance_side_2": "",
    "space_around": "",
    "ward_name": "Outside BBMP Limits",
    "ward_number": "Outside BBMP Limits"
  },
  {
    "stop_id": "2034",
    "stop_name": "Goodshed Road Hoodi",
    "lat": "12.99876186",
    "lon": "77.74238301",
    "num_shelters_side_1": "",
    "stop_distance_side_1": "",
    "num_shelters_side_2": "",
    "stop_distance_side_2": "",
    "space_around": "",
    "ward_name": "Hudi",
    "ward_number": 54
  },
  {
    "stop_id": "2069",
    "stop_name": "Gorivegere Village",
    "lat": "13.04393269",
    "lon": "77.76061092",
    "num_shelters_side_1": "",
    "stop_distance_side_1": "",
    "num_shelters_side_2": "",
    "stop_distance_side_2": "",
    "space_around": "",
    "ward_name": "Outside BBMP Limits",
    "ward_number": "Outside BBMP Limits"
  },
  {
    "stop_id": "6916",
    "stop_name": "GR Tech Park ITPL",
    "lat": "12.98661599",
    "lon": "77.74426014",
    "num_shelters_side_1": "",
    "stop_distance_side_1": "",
    "num_shelters_side_2": "",
    "stop_distance_side_2": "",
    "space_around": "",
    "ward_name": "Kadugodi",
    "ward_number": 83
  },
  {
    "stop_id": "5540",
    "stop_name": "Grandwell",
    "lat": "13.06318802",
    "lon": "77.73989081",
    "num_shelters_side_1": "",
    "stop_distance_side_1": "",
    "num_shelters_side_2": "",
    "stop_distance_side_2": "",
    "space_around": "",
    "ward_name": "Outside BBMP Limits",
    "ward_number": "Outside BBMP Limits"
  },
  {
    "stop_id": "2063",
    "stop_name": "Graphite India",
    "lat": "12.97719646",
    "lon": "77.71013815",
    "num_shelters_side_1": "",
    "stop_distance_side_1": "",
    "num_shelters_side_2": "",
    "stop_distance_side_2": "",
    "space_around": "",
    "ward_name": "Dodda Nekkundi",
    "ward_number": 85
  },
  {
    "stop_id": "11373",
    "stop_name": "Graphite India Jn",
    "lat": "12.98532226",
    "lon": "77.70833731",
    "num_shelters_side_1": "",
    "stop_distance_side_1": "",
    "num_shelters_side_2": "",
    "stop_distance_side_2": "",
    "space_around": "",
    "ward_name": "Garudachar Playa",
    "ward_number": 82
  },
  {
    "stop_id": "2408",
    "stop_name": "Gubbi Cross",
    "lat": "13.06442077",
    "lon": "77.65187314",
    "num_shelters_side_1": "",
    "stop_distance_side_1": "",
    "num_shelters_side_2": "",
    "stop_distance_side_2": "",
    "space_around": "",
    "ward_name": "Hudi",
    "ward_number": 54
  },
  {
    "stop_id": "5516",
    "stop_name": "Gundur Marasandra",
    "lat": "13.08670469",
    "lon": "77.71500796",
    "num_shelters_side_1": "",
    "stop_distance_side_1": "",
    "num_shelters_side_2": "",
    "stop_distance_side_2": "",
    "space_around": "",
    "ward_name": "Outside BBMP Limits",
    "ward_number": "Outside BBMP Limits"
  },
  {
    "stop_id": "392",
    "stop_name": "Gunjuru",
    "lat": "12.92137000",
    "lon": "77.73641167",
    "num_shelters_side_1": "",
    "stop_distance_side_1": "",
    "num_shelters_side_2": "",
    "stop_distance_side_2": "",
    "space_around": "",
    "ward_name": "Varthuru",
    "ward_number": 149
  },
  {
    "stop_id": "2157",
    "stop_name": "Gunjurupalya",
    "lat": "12.92212787",
    "lon": "77.71782423",
    "num_shelters_side_1": "",
    "stop_distance_side_1": "",
    "num_shelters_side_2": "",
    "stop_distance_side_2": "",
    "space_around": "",
    "ward_name": "Varthuru",
    "ward_number": 149
  },
  {
    "stop_id": "12330",
    "stop_name": "Gunjurupalya Gate",
    "lat": "12.91726216",
    "lon": "77.72540823",
    "num_shelters_side_1": "",
    "stop_distance_side_1": "",
    "num_shelters_side_2": "",
    "stop_distance_side_2": "",
    "space_around": "",
    "ward_name": "Varthuru",
    "ward_number": 149
  },
  {
    "stop_id": "12388",
    "stop_name": "Hado Siddapura",
    "lat": "12.89454517",
    "lon": "77.70064205",
    "num_shelters_side_1": "",
    "stop_distance_side_1": "",
    "num_shelters_side_2": "",
    "stop_distance_side_2": "",
    "space_around": "",
    "ward_name": "Outside BBMP Limits",
    "ward_number": "Outside BBMP Limits"
  },
  {
    "stop_id": "7010",
    "stop_name": "Hagaduru",
    "lat": "12.96846907",
    "lon": "77.75599480",
    "num_shelters_side_1": "",
    "stop_distance_side_1": "",
    "num_shelters_side_2": "",
    "stop_distance_side_2": "",
    "space_around": "",
    "ward_name": "Hagadur",
    "ward_number": 84
  },
  {
    "stop_id": "8613",
    "stop_name": "Halanayakanahalli Sarjapura Road",
    "lat": "12.90147110",
    "lon": "77.68829584",
    "num_shelters_side_1": "",
    "stop_distance_side_1": "",
    "num_shelters_side_2": "",
    "stop_distance_side_2": "",
    "space_around": "",
    "ward_name": "Outside BBMP Limits",
    "ward_number": "Outside BBMP Limits"
  },
  {
    "stop_id": "3416",
    "stop_name": "Halasahalli Cross Gunjur",
    "lat": "12.93289290",
    "lon": "77.75818623",
    "num_shelters_side_1": "",
    "stop_distance_side_1": "",
    "num_shelters_side_2": "",
    "stop_distance_side_2": "",
    "space_around": "",
    "ward_name": "Varthuru",
    "ward_number": 149
  },
  {
    "stop_id": "7076",
    "stop_name": "Halasahalli Gunjur",
    "lat": "12.92417633",
    "lon": "77.76235901",
    "num_shelters_side_1": "",
    "stop_distance_side_1": "",
    "num_shelters_side_2": "",
    "stop_distance_side_2": "",
    "space_around": "",
    "ward_name": "Outside BBMP Limits",
    "ward_number": "Outside BBMP Limits"
  },
  {
    "stop_id": "5402",
    "stop_name": "Hancharahalli",
    "lat": "13.09178959",
    "lon": "77.74164030",
    "num_shelters_side_1": "",
    "stop_distance_side_1": "",
    "num_shelters_side_2": "",
    "stop_distance_side_2": "",
    "space_around": "",
    "ward_name": "Outside BBMP Limits",
    "ward_number": "Outside BBMP Limits"
  },
  {
    "stop_id": "11567",
    "stop_name": "Hanumanthappa Layout Bileshivale",
    "lat": "13.05821060",
    "lon": "77.65368462",
    "num_shelters_side_1": "",
    "stop_distance_side_1": "",
    "num_shelters_side_2": "",
    "stop_distance_side_2": "",
    "space_around": "",
    "ward_name": "Hudi",
    "ward_number": 54
  },
  {
    "stop_id": "8629",
    "stop_name": "Haraluru Cross Sarjapura Road",
    "lat": "12.91878436",
    "lon": "77.66879417",
    "num_shelters_side_1": "",
    "stop_distance_side_1": "",
    "num_shelters_side_2": "",
    "stop_distance_side_2": "",
    "space_around": "",
    "ward_name": "Bellanduru",
    "ward_number": 150
  },
  {
    "stop_id": "2337",
    "stop_name": "Haraluru Sarjapura Road",
    "lat": "12.90146259",
    "lon": "77.66040769",
    "num_shelters_side_1": "",
    "stop_distance_side_1": "",
    "num_shelters_side_2": "",
    "stop_distance_side_2": "",
    "space_around": "",
    "ward_name": "Bellanduru",
    "ward_number": 150
  },
  {
    "stop_id": "2168",
    "stop_name": "Heggondanahalli",
    "lat": "12.90576379",
    "lon": "77.74654205",
    "num_shelters_side_1": "",
    "stop_distance_side_1": "",
    "num_shelters_side_2": "",
    "stop_distance_side_2": "",
    "space_around": "",
    "ward_name": "Outside BBMP Limits",
    "ward_number": "Outside BBMP Limits"
  },
  {
    "stop_id": "1708",
    "stop_name": "Hiranandahalli Hoskote",
    "lat": "13.04583430",
    "lon": "77.72253882",
    "num_shelters_side_1": "",
    "stop_distance_side_1": "",
    "num_shelters_side_2": "",
    "stop_distance_side_2": "",
    "space_around": "",
    "ward_name": "Outside BBMP Limits",
    "ward_number": "Outside BBMP Limits"
  },
  {
    "stop_id": "406",
    "stop_name": "Hoodi",
    "lat": "12.99228224",
    "lon": "77.71630953",
    "num_shelters_side_1": "",
    "stop_distance_side_1": "",
    "num_shelters_side_2": "",
    "stop_distance_side_2": "",
    "space_around": "",
    "ward_name": "Hudi",
    "ward_number": 54
  },
  {
    "stop_id": "6919",
    "stop_name": "Hope Farm",
    "lat": "12.98413044",
    "lon": "77.75247574",
    "num_shelters_side_1": "",
    "stop_distance_side_1": "",
    "num_shelters_side_2": "",
    "stop_distance_side_2": "",
    "space_around": "",
    "ward_name": "Kadugodi",
    "ward_number": 83
  },
  {
    "stop_id": "8810",
    "stop_name": "Hosahalli Varturu",
    "lat": "12.92030426",
    "lon": "77.74165034",
    "num_shelters_side_1": "",
    "stop_distance_side_1": "",
    "num_shelters_side_2": "",
    "stop_distance_side_2": "",
    "space_around": "",
    "ward_name": "Varthuru",
    "ward_number": 149
  },
  {
    "stop_id": "626",
    "stop_name": "Hoskote Kodi",
    "lat": "13.05605429",
    "lon": "77.76743884",
    "num_shelters_side_1": "",
    "stop_distance_side_1": "",
    "num_shelters_side_2": "",
    "stop_distance_side_2": "",
    "space_around": "",
    "ward_name": "Outside BBMP Limits",
    "ward_number": "Outside BBMP Limits"
  },
  {
    "stop_id": "8875",
    "stop_name": "Hoskote Toll",
    "lat": "13.05938638",
    "lon": "77.77085155",
    "num_shelters_side_1": "",
    "stop_distance_side_1": "",
    "num_shelters_side_2": "",
    "stop_distance_side_2": "",
    "space_around": "",
    "ward_name": "Outside BBMP Limits",
    "ward_number": "Outside BBMP Limits"
  },
  {
    "stop_id": "1145",
    "stop_name": "Hosuru Bande",
    "lat": "13.10621691",
    "lon": "77.66088732",
    "num_shelters_side_1": "",
    "stop_distance_side_1": "",
    "num_shelters_side_2": "",
    "stop_distance_side_2": "",
    "space_around": "",
    "ward_name": "Outside BBMP Limits",
    "ward_number": "Outside BBMP Limits"
  },
  {
    "stop_id": "15097",
    "stop_name": "HP Softwere Company Mahadevapura",
    "lat": "12.99685327",
    "lon": "77.68925741",
    "num_shelters_side_1": "",
    "stop_distance_side_1": "",
    "num_shelters_side_2": "",
    "stop_distance_side_2": "",
    "space_around": "",
    "ward_name": "Devasandra",
    "ward_number": 55
  },
  {
    "stop_id": "12127",
    "stop_name": "HSR Layout 22nd Cross",
    "lat": "12.90860857",
    "lon": "77.65179366",
    "num_shelters_side_1": "",
    "stop_distance_side_1": "",
    "num_shelters_side_2": "",
    "stop_distance_side_2": "",
    "space_around": "",
    "ward_name": "HSR Layout",
    "ward_number": 174
  },
  {
    "stop_id": "5390",
    "stop_name": "Huskur",
    "lat": "13.06060609",
    "lon": "77.76268738",
    "num_shelters_side_1": "",
    "stop_distance_side_1": "",
    "num_shelters_side_2": "",
    "stop_distance_side_2": "",
    "space_around": "",
    "ward_name": "Outside BBMP Limits",
    "ward_number": "Outside BBMP Limits"
  },
  {
    "stop_id": "2061",
    "stop_name": "I Gate",
    "lat": "12.97711710",
    "lon": "77.71878515",
    "num_shelters_side_1": "",
    "stop_distance_side_1": "",
    "num_shelters_side_2": "",
    "stop_distance_side_2": "",
    "space_around": "",
    "ward_name": "Dodda Nekkundi",
    "ward_number": 85
  },
  {
    "stop_id": "5560",
    "stop_name": "Ibbaluru Sarjapura Road",
    "lat": "12.92134441",
    "lon": "77.66195789",
    "num_shelters_side_1": "",
    "stop_distance_side_1": "",
    "num_shelters_side_2": "",
    "stop_distance_side_2": "",
    "space_around": "",
    "ward_name": "Agaram",
    "ward_number": 114
  },
  {
    "stop_id": "8832",
    "stop_name": "Immadihalli",
    "lat": "12.96673939",
    "lon": "77.76313484",
    "num_shelters_side_1": "",
    "stop_distance_side_1": "",
    "num_shelters_side_2": "",
    "stop_distance_side_2": "",
    "space_around": "",
    "ward_name": "Hagadur",
    "ward_number": 84
  },
  {
    "stop_id": "11559",
    "stop_name": "ISRO Layout Karthiknagara",
    "lat": "12.96609568",
    "lon": "77.69496918",
    "num_shelters_side_1": "",
    "stop_distance_side_1": "",
    "num_shelters_side_2": "",
    "stop_distance_side_2": "",
    "space_around": "",
    "ward_name": "Dodda Nekkundi",
    "ward_number": 85
  },
  {
    "stop_id": "6915",
    "stop_name": "ITPL",
    "lat": "12.98769279",
    "lon": "77.73739233",
    "num_shelters_side_1": "",
    "stop_distance_side_1": "",
    "num_shelters_side_2": "",
    "stop_distance_side_2": "",
    "space_around": "",
    "ward_name": "Kadugodi",
    "ward_number": 83
  },
  {
    "stop_id": "3548",
    "stop_name": "Janthamane Varthur",
    "lat": "12.94203602",
    "lon": "77.75741570",
    "num_shelters_side_1": "",
    "stop_distance_side_1": "",
    "num_shelters_side_2": "",
    "stop_distance_side_2": "",
    "space_around": "",
    "ward_name": "Varthuru",
    "ward_number": 149
  },
  {
    "stop_id": "10012",
    "stop_name": "Jinke Thimmanahalli",
    "lat": "13.02264323",
    "lon": "77.68611655",
    "num_shelters_side_1": "",
    "stop_distance_side_1": "",
    "num_shelters_side_2": "",
    "stop_distance_side_2": "",
    "space_around": "",
    "ward_name": "Ramamurthy Nagar",
    "ward_number": 26
  },
  {
    "stop_id": "1232",
    "stop_name": "Jn of New Bridge",
    "lat": "12.95528894",
    "lon": "77.64129239",
    "num_shelters_side_1": "",
    "stop_distance_side_1": "",
    "num_shelters_side_2": "",
    "stop_distance_side_2": "",
    "space_around": "",
    "ward_name": "Domlur",
    "ward_number": 112
  },
  {
    "stop_id": "2597",
    "stop_name": "Jn of Sarjapura",
    "lat": "12.92092954",
    "lon": "77.66603753",
    "num_shelters_side_1": "",
    "stop_distance_side_1": "",
    "num_shelters_side_2": "",
    "stop_distance_side_2": "",
    "space_around": "",
    "ward_name": "Bellanduru",
    "ward_number": 150
  },
  {
    "stop_id": "11405",
    "stop_name": "John F Welch Technology Centre",
    "lat": "12.97370771",
    "lon": "77.72701688",
    "num_shelters_side_1": "",
    "stop_distance_side_1": "",
    "num_shelters_side_2": "",
    "stop_distance_side_2": "",
    "space_around": "",
    "ward_name": "Hagadur",
    "ward_number": 84
  },
  {
    "stop_id": "2125",
    "stop_name": "Junnasandra Gate Wipro Regional Office",
    "lat": "12.91082098",
    "lon": "77.68447201",
    "num_shelters_side_1": "",
    "stop_distance_side_1": "",
    "num_shelters_side_2": "",
    "stop_distance_side_2": "",
    "space_around": "",
    "ward_name": "Bellanduru",
    "ward_number": 150
  },
  {
    "stop_id": "5415",
    "stop_name": "Jyothipura",
    "lat": "13.10270447",
    "lon": "77.75059743",
    "num_shelters_side_1": "",
    "stop_distance_side_1": "",
    "num_shelters_side_2": "",
    "stop_distance_side_2": "",
    "space_around": "",
    "ward_name": "Outside BBMP Limits",
    "ward_number": "Outside BBMP Limits"
  },
  {
    "stop_id": "6810",
    "stop_name": "K Dommasandra",
    "lat": "13.01082203",
    "lon": "77.74038970",
    "num_shelters_side_1": "",
    "stop_distance_side_1": "",
    "num_shelters_side_2": "",
    "stop_distance_side_2": "",
    "space_around": "",
    "ward_name": "Outside BBMP Limits",
    "ward_number": "Outside BBMP Limits"
  },
  {
    "stop_id": "1194",
    "stop_name": "K Narayanapura Cross Baglur Road",
    "lat": "13.05268852",
    "lon": "77.64613033",
    "num_shelters_side_1": "",
    "stop_distance_side_1": "",
    "num_shelters_side_2": "",
    "stop_distance_side_2": "",
    "space_around": "",
    "ward_name": "Horamavu",
    "ward_number": 25
  },
  {
    "stop_id": "5407",
    "stop_name": "Kaatugollahalli",
    "lat": "13.09437151",
    "lon": "77.74285497",
    "num_shelters_side_1": "",
    "stop_distance_side_1": "",
    "num_shelters_side_2": "",
    "stop_distance_side_2": "",
    "space_around": "",
    "ward_name": "Outside BBMP Limits",
    "ward_number": "Outside BBMP Limits"
  },
  {
    "stop_id": "2159",
    "stop_name": "Kachamaranahalli",
    "lat": "12.91223117",
    "lon": "77.73349478",
    "num_shelters_side_1": "",
    "stop_distance_side_1": "",
    "num_shelters_side_2": "",
    "stop_distance_side_2": "",
    "space_around": "",
    "ward_name": "Outside BBMP Limits",
    "ward_number": "Outside BBMP Limits"
  },
  {
    "stop_id": "9552",
    "stop_name": "Kada Agrahara Yarappanahalli",
    "lat": "13.07971929",
    "lon": "77.68546410",
    "num_shelters_side_1": "",
    "stop_distance_side_1": "",
    "num_shelters_side_2": "",
    "stop_distance_side_2": "",
    "space_around": "",
    "ward_name": "Outside BBMP Limits",
    "ward_number": "Outside BBMP Limits"
  },
  {
    "stop_id": "5557",
    "stop_name": "Kadabisanahalli",
    "lat": "12.94177360",
    "lon": "77.69673541",
    "num_shelters_side_1": "",
    "stop_distance_side_1": "",
    "num_shelters_side_2": "",
    "stop_distance_side_2": "",
    "space_around": "",
    "ward_name": "Bellanduru",
    "ward_number": 150
  },
  {
    "stop_id": "1173",
    "stop_name": "Kadasonnappanahalli Gate",
    "lat": "13.10172730",
    "lon": "77.65827456",
    "num_shelters_side_1": "",
    "stop_distance_side_1": "",
    "num_shelters_side_2": "",
    "stop_distance_side_2": "",
    "space_around": "",
    "ward_name": "Outside BBMP Limits",
    "ward_number": "Outside BBMP Limits"
  },
  {
    "stop_id": "9128",
    "stop_name": "Kadugodi",
    "lat": "12.99655531",
    "lon": "77.76610136",
    "num_shelters_side_1": "",
    "stop_distance_side_1": "",
    "num_shelters_side_2": "",
    "stop_distance_side_2": "",
    "space_around": "",
    "ward_name": "Kadugodi",
    "ward_number": 83
  },
  {
    "stop_id": "12284",
    "stop_name": "Kadusonnappanahalli Village",
    "lat": "13.09888213",
    "lon": "77.66373083",
    "num_shelters_side_1": "",
    "stop_distance_side_1": "",
    "num_shelters_side_2": "",
    "stop_distance_side_2": "",
    "space_around": "",
    "ward_name": "Outside BBMP Limits",
    "ward_number": "Outside BBMP Limits"
  },
  {
    "stop_id": "2124",
    "stop_name": "Kaikondrahalli Sarjapura Road",
    "lat": "12.91395419",
    "lon": "77.67766761",
    "num_shelters_side_1": "",
    "stop_distance_side_1": "",
    "num_shelters_side_2": "",
    "stop_distance_side_2": "",
    "space_around": "",
    "ward_name": "Bellanduru",
    "ward_number": 150
  },
  {
    "stop_id": "12633",
    "stop_name": "Kalyani Platina Tech Park ",
    "lat": "12.97097961",
    "lon": "77.71756008",
    "num_shelters_side_1": "",
    "stop_distance_side_1": "",
    "num_shelters_side_2": "",
    "stop_distance_side_2": "",
    "space_around": "",
    "ward_name": "Dodda Nekkundi",
    "ward_number": 85
  },
  {
    "stop_id": "6991",
    "stop_name": "Kammasandra Gate",
    "lat": "12.87091621",
    "lon": "77.73376733",
    "num_shelters_side_1": "",
    "stop_distance_side_1": "",
    "num_shelters_side_2": "",
    "stop_distance_side_2": "",
    "space_around": "",
    "ward_name": "Outside BBMP Limits",
    "ward_number": "Outside BBMP Limits"
  },
  {
    "stop_id": "1718",
    "stop_name": "Kammasandra Hoskote",
    "lat": "13.07856265",
    "lon": "77.71635614",
    "num_shelters_side_1": "",
    "stop_distance_side_1": "",
    "num_shelters_side_2": "",
    "stop_distance_side_2": "",
    "space_around": "",
    "ward_name": "Outside BBMP Limits",
    "ward_number": "Outside BBMP Limits"
  },
  {
    "stop_id": "2077",
    "stop_name": "Kannamangala Hoskote",
    "lat": "13.03222214",
    "lon": "77.75864181",
    "num_shelters_side_1": "",
    "stop_distance_side_1": "",
    "num_shelters_side_2": "",
    "stop_distance_side_2": "",
    "space_around": "",
    "ward_name": "Outside BBMP Limits",
    "ward_number": "Outside BBMP Limits"
  },
  {
    "stop_id": "2414",
    "stop_name": "Kannuru",
    "lat": "13.09322686",
    "lon": "77.65424298",
    "num_shelters_side_1": "",
    "stop_distance_side_1": "",
    "num_shelters_side_2": "",
    "stop_distance_side_2": "",
    "space_around": "",
    "ward_name": "Outside BBMP Limits",
    "ward_number": "Outside BBMP Limits"
  },
  {
    "stop_id": "2582",
    "stop_name": "Karthiknagara",
    "lat": "12.96820330",
    "lon": "77.70167984",
    "num_shelters_side_1": "",
    "stop_distance_side_1": "",
    "num_shelters_side_2": "",
    "stop_distance_side_2": "",
    "space_around": "",
    "ward_name": "Dodda Nekkundi",
    "ward_number": 85
  },
  {
    "stop_id": "6978",
    "stop_name": "Kasavanahalli",
    "lat": "12.90495097",
    "lon": "77.67598786",
    "num_shelters_side_1": "",
    "stop_distance_side_1": "",
    "num_shelters_side_2": "",
    "stop_distance_side_2": "",
    "space_around": "",
    "ward_name": "Bellanduru",
    "ward_number": 150
  },
  {
    "stop_id": "628",
    "stop_name": "Katamanallur Gate",
    "lat": "13.05308024",
    "lon": "77.76140698",
    "num_shelters_side_1": "",
    "stop_distance_side_1": "",
    "num_shelters_side_2": "",
    "stop_distance_side_2": "",
    "space_around": "",
    "ward_name": "Outside BBMP Limits",
    "ward_number": "Outside BBMP Limits"
  },
  {
    "stop_id": "6950",
    "stop_name": "Kempapura HAL",
    "lat": "12.94657757",
    "lon": "77.67305017",
    "num_shelters_side_1": "",
    "stop_distance_side_1": "",
    "num_shelters_side_2": "",
    "stop_distance_side_2": "",
    "space_around": "",
    "ward_name": "Marathahalli",
    "ward_number": 86
  },
  {
    "stop_id": "2073",
    "stop_name": "Khaji Sonnenahalli",
    "lat": "13.03465601",
    "lon": "77.75908830",
    "num_shelters_side_1": "",
    "stop_distance_side_1": "",
    "num_shelters_side_2": "",
    "stop_distance_side_2": "",
    "space_around": "",
    "ward_name": "Outside BBMP Limits",
    "ward_number": "Outside BBMP Limits"
  },
  {
    "stop_id": "9194",
    "stop_name": "Kittaganuru",
    "lat": "13.03621595",
    "lon": "77.70880669",
    "num_shelters_side_1": "",
    "stop_distance_side_1": "",
    "num_shelters_side_2": "",
    "stop_distance_side_2": "",
    "space_around": "",
    "ward_name": "Outside BBMP Limits",
    "ward_number": "Outside BBMP Limits"
  },
  {
    "stop_id": "7022",
    "stop_name": "KK School Varthur",
    "lat": "12.93428350",
    "lon": "77.74342864",
    "num_shelters_side_1": "",
    "stop_distance_side_1": "",
    "num_shelters_side_2": "",
    "stop_distance_side_2": "",
    "space_around": "",
    "ward_name": "Varthuru",
    "ward_number": 149
  },
  {
    "stop_id": "8614",
    "stop_name": "Kodandarama Nagara Sarjapura Road",
    "lat": "12.89947623",
    "lon": "77.68478751",
    "num_shelters_side_1": "",
    "stop_distance_side_1": "",
    "num_shelters_side_2": "",
    "stop_distance_side_2": "",
    "space_around": "",
    "ward_name": "Outside BBMP Limits",
    "ward_number": "Outside BBMP Limits"
  },
  {
    "stop_id": "10697",
    "stop_name": "Kodathi Silk Warm Seeds Technology",
    "lat": "12.88193546",
    "lon": "77.70850360",
    "num_shelters_side_1": "",
    "stop_distance_side_1": "",
    "num_shelters_side_2": "",
    "stop_distance_side_2": "",
    "space_around": "",
    "ward_name": "Outside BBMP Limits",
    "ward_number": "Outside BBMP Limits"
  },
  {
    "stop_id": "2132",
    "stop_name": "Kodathi Village",
    "lat": "12.89652318",
    "lon": "77.72025048",
    "num_shelters_side_1": "",
    "stop_distance_side_1": "",
    "num_shelters_side_2": "",
    "stop_distance_side_2": "",
    "space_around": "",
    "ward_name": "Outside BBMP Limits",
    "ward_number": "Outside BBMP Limits"
  },
  {
    "stop_id": "9150",
    "stop_name": "Kodigehalli Sadaramangala",
    "lat": "12.99618553",
    "lon": "77.71925792",
    "num_shelters_side_1": "",
    "stop_distance_side_1": "",
    "num_shelters_side_2": "",
    "stop_distance_side_2": "",
    "space_around": "",
    "ward_name": "Hudi",
    "ward_number": 54
  },
  {
    "stop_id": "7061",
    "stop_name": "Konadasapura",
    "lat": "13.04511465",
    "lon": "77.75640249",
    "num_shelters_side_1": "",
    "stop_distance_side_1": "",
    "num_shelters_side_2": "",
    "stop_distance_side_2": "",
    "space_around": "",
    "ward_name": "Outside BBMP Limits",
    "ward_number": "Outside BBMP Limits"
  },
  {
    "stop_id": "5001",
    "stop_name": "Kothanuru",
    "lat": "13.06197433",
    "lon": "77.64887344",
    "num_shelters_side_1": "",
    "stop_distance_side_1": "",
    "num_shelters_side_2": "",
    "stop_distance_side_2": "",
    "space_around": "",
    "ward_name": "Horamavu",
    "ward_number": 25
  },
  {
    "stop_id": "12237",
    "stop_name": "Kristu Jayanti College",
    "lat": "13.05877494",
    "lon": "77.64293432",
    "num_shelters_side_1": "",
    "stop_distance_side_1": "",
    "num_shelters_side_2": "",
    "stop_distance_side_2": "",
    "space_around": "",
    "ward_name": "Horamavu",
    "ward_number": 25
  },
  {
    "stop_id": "2059",
    "stop_name": "KTPO",
    "lat": "12.97677612",
    "lon": "77.72224499",
    "num_shelters_side_1": "",
    "stop_distance_side_1": "",
    "num_shelters_side_2": "",
    "stop_distance_side_2": "",
    "space_around": "",
    "ward_name": "Dodda Nekkundi",
    "ward_number": 85
  },
  {
    "stop_id": "2339",
    "stop_name": "Kudlu Hosuru Road ",
    "lat": "12.88945198",
    "lon": "77.65525144",
    "num_shelters_side_1": "",
    "stop_distance_side_1": "",
    "num_shelters_side_2": "",
    "stop_distance_side_2": "",
    "space_around": "",
    "ward_name": "Singasandra",
    "ward_number": 191
  },
  {
    "stop_id": "2095",
    "stop_name": "Kumbena Agrahara",
    "lat": "13.00137215",
    "lon": "77.74760597",
    "num_shelters_side_1": "",
    "stop_distance_side_1": "",
    "num_shelters_side_2": "",
    "stop_distance_side_2": "",
    "space_around": "",
    "ward_name": "Hudi",
    "ward_number": 54
  },
  {
    "stop_id": "2036",
    "stop_name": "Kundalahalli",
    "lat": "12.95832429",
    "lon": "77.71559037",
    "num_shelters_side_1": "",
    "stop_distance_side_1": "",
    "num_shelters_side_2": "",
    "stop_distance_side_2": "",
    "space_around": "",
    "ward_name": "Dodda Nekkundi",
    "ward_number": 85
  },
  {
    "stop_id": "9171",
    "stop_name": "Kundalahalli AECS Layout",
    "lat": "12.96432876",
    "lon": "77.71385193",
    "num_shelters_side_1": "",
    "stop_distance_side_1": "",
    "num_shelters_side_2": "",
    "stop_distance_side_2": "",
    "space_around": "",
    "ward_name": "Dodda Nekkundi",
    "ward_number": 85
  },
  {
    "stop_id": "2065",
    "stop_name": "Kundalahalli Colony",
    "lat": "12.97053893",
    "lon": "77.71244322",
    "num_shelters_side_1": "",
    "stop_distance_side_1": "",
    "num_shelters_side_2": "",
    "stop_distance_side_2": "",
    "space_around": "",
    "ward_name": "Dodda Nekkundi",
    "ward_number": 85
  },
  {
    "stop_id": "134",
    "stop_name": "Kundalahalli Gate",
    "lat": "12.95585442",
    "lon": "77.71376455",
    "num_shelters_side_1": "",
    "stop_distance_side_1": "",
    "num_shelters_side_2": "",
    "stop_distance_side_2": "",
    "space_around": "",
    "ward_name": "Varthuru",
    "ward_number": 149
  },
  {
    "stop_id": "6808",
    "stop_name": "Kurudu Sonnenahalli",
    "lat": "13.01409914",
    "lon": "77.73227602",
    "num_shelters_side_1": "",
    "stop_distance_side_1": "",
    "num_shelters_side_2": "",
    "stop_distance_side_2": "",
    "space_around": "",
    "ward_name": "Outside BBMP Limits",
    "ward_number": "Outside BBMP Limits"
  },
  {
    "stop_id": "5388",
    "stop_name": "Lagumenahalli Circle",
    "lat": "13.07214029",
    "lon": "77.75426013",
    "num_shelters_side_1": "",
    "stop_distance_side_1": "",
    "num_shelters_side_2": "",
    "stop_distance_side_2": "",
    "space_around": "",
    "ward_name": "Outside BBMP Limits",
    "ward_number": "Outside BBMP Limits"
  },
  {
    "stop_id": "3547",
    "stop_name": "Madhuranagara Varthur",
    "lat": "12.93980025",
    "lon": "77.76027446",
    "num_shelters_side_1": "",
    "stop_distance_side_1": "",
    "num_shelters_side_2": "",
    "stop_distance_side_2": "",
    "space_around": "",
    "ward_name": "Varthuru",
    "ward_number": 149
  },
  {
    "stop_id": "2629",
    "stop_name": "Mahadevapura ITPL",
    "lat": "12.99735044",
    "lon": "77.69070948",
    "num_shelters_side_1": "",
    "stop_distance_side_1": "",
    "num_shelters_side_2": "",
    "stop_distance_side_2": "",
    "space_around": "",
    "ward_name": "Devasandra",
    "ward_number": 55
  },
  {
    "stop_id": "2578",
    "stop_name": "Mahadevapura Ring Road",
    "lat": "12.99118394",
    "lon": "77.68761413",
    "num_shelters_side_1": "",
    "stop_distance_side_1": "",
    "num_shelters_side_2": "",
    "stop_distance_side_2": "",
    "space_around": "",
    "ward_name": "Vijnana Nagar",
    "ward_number": 81
  },
  {
    "stop_id": "5123",
    "stop_name": "Mandur",
    "lat": "13.08176170",
    "lon": "77.73835928",
    "num_shelters_side_1": "",
    "stop_distance_side_1": "",
    "num_shelters_side_2": "",
    "stop_distance_side_2": "",
    "space_around": "",
    "ward_name": "Outside BBMP Limits",
    "ward_number": "Outside BBMP Limits"
  },
  {
    "stop_id": "15643",
    "stop_name": "Manhattan Park ORRCA EPIP Zone",
    "lat": "12.97118348",
    "lon": "77.71833256",
    "num_shelters_side_1": "",
    "stop_distance_side_1": "",
    "num_shelters_side_2": "",
    "stop_distance_side_2": "",
    "space_around": "",
    "ward_name": "Dodda Nekkundi",
    "ward_number": 85
  },
  {
    "stop_id": "1710",
    "stop_name": "Maragondanahalli Kittaganur",
    "lat": "13.03719575",
    "lon": "77.69297354",
    "num_shelters_side_1": "",
    "stop_distance_side_1": "",
    "num_shelters_side_2": "",
    "stop_distance_side_2": "",
    "space_around": "",
    "ward_name": "Outside BBMP Limits",
    "ward_number": "Outside BBMP Limits"
  },
  {
    "stop_id": "1629",
    "stop_name": "Marathahalli",
    "lat": "12.95609833",
    "lon": "77.69380013",
    "num_shelters_side_1": "",
    "stop_distance_side_1": "",
    "num_shelters_side_2": "",
    "stop_distance_side_2": "",
    "space_around": "",
    "ward_name": "Marathahalli",
    "ward_number": 86
  },
  {
    "stop_id": "2584",
    "stop_name": "Marathahalli Bridge",
    "lat": "12.95984663",
    "lon": "77.70139050",
    "num_shelters_side_1": "",
    "stop_distance_side_1": "",
    "num_shelters_side_2": "",
    "stop_distance_side_2": "",
    "space_around": "",
    "ward_name": "Dodda Nekkundi",
    "ward_number": 85
  },
  {
    "stop_id": "6799",
    "stop_name": "Military Bridge",
    "lat": "12.94605215",
    "lon": "77.64002144",
    "num_shelters_side_1": "",
    "stop_distance_side_1": "",
    "num_shelters_side_2": "",
    "stop_distance_side_2": "",
    "space_around": "",
    "ward_name": "Agaram",
    "ward_number": 114
  },
  {
    "stop_id": "5624",
    "stop_name": "Mittaganahalli",
    "lat": "13.10718753",
    "lon": "77.66343579",
    "num_shelters_side_1": "",
    "stop_distance_side_1": "",
    "num_shelters_side_2": "",
    "stop_distance_side_2": "",
    "space_around": "",
    "ward_name": "Outside BBMP Limits",
    "ward_number": "Outside BBMP Limits"
  },
  {
    "stop_id": "6773",
    "stop_name": "MR Nursing College",
    "lat": "13.05838304",
    "lon": "77.64868766",
    "num_shelters_side_1": "",
    "stop_distance_side_1": "",
    "num_shelters_side_2": "",
    "stop_distance_side_2": "",
    "space_around": "",
    "ward_name": "Hudi",
    "ward_number": 54
  },
  {
    "stop_id": "5521",
    "stop_name": "Mulluru Sarjapura",
    "lat": "12.90436533",
    "lon": "77.72448957",
    "num_shelters_side_1": "",
    "stop_distance_side_1": "",
    "num_shelters_side_2": "",
    "stop_distance_side_2": "",
    "space_around": "",
    "ward_name": "Outside BBMP Limits",
    "ward_number": "Outside BBMP Limits"
  },
  {
    "stop_id": "12672",
    "stop_name": "Multiplex Marathahalli",
    "lat": "12.95161475",
    "lon": "77.69968987",
    "num_shelters_side_1": "",
    "stop_distance_side_1": "",
    "num_shelters_side_2": "",
    "stop_distance_side_2": "",
    "space_around": "",
    "ward_name": "Bellanduru",
    "ward_number": 150
  },
  {
    "stop_id": "6924",
    "stop_name": "Munish Singh Hospital",
    "lat": "12.98057588",
    "lon": "77.75184274",
    "num_shelters_side_1": "",
    "stop_distance_side_1": "",
    "num_shelters_side_2": "",
    "stop_distance_side_2": "",
    "space_around": "",
    "ward_name": "Kadugodi",
    "ward_number": 83
  },
  {
    "stop_id": "2074",
    "stop_name": "Munnekolalu",
    "lat": "12.95629245",
    "lon": "77.70887399",
    "num_shelters_side_1": "",
    "stop_distance_side_1": "",
    "num_shelters_side_2": "",
    "stop_distance_side_2": "",
    "space_around": "",
    "ward_name": "Varthuru",
    "ward_number": 149
  },
  {
    "stop_id": "1368",
    "stop_name": "Muttanalluru Cross",
    "lat": "12.88739997",
    "lon": "77.73841943",
    "num_shelters_side_1": "",
    "stop_distance_side_1": "",
    "num_shelters_side_2": "",
    "stop_distance_side_2": "",
    "space_around": "",
    "ward_name": "Outside BBMP Limits",
    "ward_number": "Outside BBMP Limits"
  },
  {
    "stop_id": "2433",
    "stop_name": "Nagenahalli Byrathi Bande",
    "lat": "13.08145663",
    "lon": "77.65337787",
    "num_shelters_side_1": "",
    "stop_distance_side_1": "",
    "num_shelters_side_2": "",
    "stop_distance_side_2": "",
    "space_around": "",
    "ward_name": "Hudi",
    "ward_number": 54
  },
  {
    "stop_id": "8835",
    "stop_name": "Nagondanahalli",
    "lat": "12.97526388",
    "lon": "77.77131289",
    "num_shelters_side_1": "",
    "stop_distance_side_1": "",
    "num_shelters_side_2": "",
    "stop_distance_side_2": "",
    "space_around": "",
    "ward_name": "Hagadur",
    "ward_number": 84
  },
  {
    "stop_id": "6945",
    "stop_name": "Nallurahalli",
    "lat": "12.96933685",
    "lon": "77.73573607",
    "num_shelters_side_1": "",
    "stop_distance_side_1": "",
    "num_shelters_side_2": "",
    "stop_distance_side_2": "",
    "space_around": "",
    "ward_name": "Hagadur",
    "ward_number": 84
  },
  {
    "stop_id": "5397",
    "stop_name": "New Baldwin International School",
    "lat": "13.07253831",
    "lon": "77.73721019",
    "num_shelters_side_1": "",
    "stop_distance_side_1": "",
    "num_shelters_side_2": "",
    "stop_distance_side_2": "",
    "space_around": "",
    "ward_name": "Outside BBMP Limits",
    "ward_number": "Outside BBMP Limits"
  },
  {
    "stop_id": "5874",
    "stop_name": "Nimbekaipura",
    "lat": "13.05852936",
    "lon": "77.75584996",
    "num_shelters_side_1": "",
    "stop_distance_side_1": "",
    "num_shelters_side_2": "",
    "stop_distance_side_2": "",
    "space_around": "",
    "ward_name": "Outside BBMP Limits",
    "ward_number": "Outside BBMP Limits"
  },
  {
    "stop_id": "5627",
    "stop_name": "Oasis School Kannuru",
    "lat": "13.08934244",
    "lon": "77.66633928",
    "num_shelters_side_1": "",
    "stop_distance_side_1": "",
    "num_shelters_side_2": "",
    "stop_distance_side_2": "",
    "space_around": "",
    "ward_name": "Outside BBMP Limits",
    "ward_number": "Outside BBMP Limits"
  },
  {
    "stop_id": "8782",
    "stop_name": "Panathuru Cirlce",
    "lat": "12.93560317",
    "lon": "77.70575970",
    "num_shelters_side_1": "",
    "stop_distance_side_1": "",
    "num_shelters_side_2": "",
    "stop_distance_side_2": "",
    "space_around": "",
    "ward_name": "Varthuru",
    "ward_number": 149
  },
  {
    "stop_id": "2153",
    "stop_name": "Panathuru Dinne",
    "lat": "12.92927314",
    "lon": "77.71294618",
    "num_shelters_side_1": "",
    "stop_distance_side_1": "",
    "num_shelters_side_2": "",
    "stop_distance_side_2": "",
    "space_around": "",
    "ward_name": "Varthuru",
    "ward_number": 149
  },
  {
    "stop_id": "9751",
    "stop_name": "Panathuru Kadabisanahalli",
    "lat": "12.93657415",
    "lon": "77.70367563",
    "num_shelters_side_1": "",
    "stop_distance_side_1": "",
    "num_shelters_side_2": "",
    "stop_distance_side_2": "",
    "space_around": "",
    "ward_name": "Varthuru",
    "ward_number": 149
  },
  {
    "stop_id": "9141",
    "stop_name": "Parvathinagara",
    "lat": "13.03257460",
    "lon": "77.71483898",
    "num_shelters_side_1": "",
    "stop_distance_side_1": "",
    "num_shelters_side_2": "",
    "stop_distance_side_2": "",
    "space_around": "",
    "ward_name": "Basavanapura",
    "ward_number": 53
  },
  {
    "stop_id": "9462",
    "stop_name": "Pattandur Agrahara Gate",
    "lat": "12.98754644",
    "lon": "77.73372710",
    "num_shelters_side_1": "",
    "stop_distance_side_1": "",
    "num_shelters_side_2": "",
    "stop_distance_side_2": "",
    "space_around": "",
    "ward_name": "Hudi",
    "ward_number": 54
  },
  {
    "stop_id": "9446",
    "stop_name": "Pattandur Agrahara ITPL",
    "lat": "12.97831503",
    "lon": "77.73389608",
    "num_shelters_side_1": "",
    "stop_distance_side_1": "",
    "num_shelters_side_2": "",
    "stop_distance_side_2": "",
    "space_around": "",
    "ward_name": "Garudachar Playa",
    "ward_number": 82
  },
  {
    "stop_id": "15639",
    "stop_name": "Petrol Bunk Bellanduru",
    "lat": "12.92342930",
    "lon": "77.67067105",
    "num_shelters_side_1": "",
    "stop_distance_side_1": "",
    "num_shelters_side_2": "",
    "stop_distance_side_2": "",
    "space_around": "",
    "ward_name": "Bellanduru",
    "ward_number": 150
  },
  {
    "stop_id": "2410",
    "stop_name": "Poornaprajna School Byrathi",
    "lat": "13.07532678",
    "lon": "77.65159125",
    "num_shelters_side_1": "",
    "stop_distance_side_1": "",
    "num_shelters_side_2": "",
    "stop_distance_side_2": "",
    "space_around": "",
    "ward_name": "Hudi",
    "ward_number": 54
  },
  {
    "stop_id": "14943",
    "stop_name": "Poorva Fountain Apartment",
    "lat": "12.95851031",
    "lon": "77.70455003",
    "num_shelters_side_1": "",
    "stop_distance_side_1": "",
    "num_shelters_side_2": "",
    "stop_distance_side_2": "",
    "space_around": "",
    "ward_name": "Dodda Nekkundi",
    "ward_number": 85
  },
  {
    "stop_id": "5400",
    "stop_name": "Premium Farm Mandur",
    "lat": "13.07916652",
    "lon": "77.73700007",
    "num_shelters_side_1": "",
    "stop_distance_side_1": "",
    "num_shelters_side_2": "",
    "stop_distance_side_2": "",
    "space_around": "",
    "ward_name": "Outside BBMP Limits",
    "ward_number": "Outside BBMP Limits"
  },
  {
    "stop_id": "11728",
    "stop_name": "Prestige Tech Park Kadabisanahalli",
    "lat": "12.94316360",
    "lon": "77.69170493",
    "num_shelters_side_1": "",
    "stop_distance_side_1": "",
    "num_shelters_side_2": "",
    "stop_distance_side_2": "",
    "space_around": "",
    "ward_name": "Marathahalli",
    "ward_number": 86
  },
  {
    "stop_id": "2371",
    "stop_name": "Primus Public School Huskuru Road",
    "lat": "12.88838079",
    "lon": "77.69600803",
    "num_shelters_side_1": "",
    "stop_distance_side_1": "",
    "num_shelters_side_2": "",
    "stop_distance_side_2": "",
    "space_around": "",
    "ward_name": "Outside BBMP Limits",
    "ward_number": "Outside BBMP Limits"
  },
  {
    "stop_id": "16098",
    "stop_name": "Radhareddy Layout Road SJP Main Road",
    "lat": "12.90883603",
    "lon": "77.68970668",
    "num_shelters_side_1": "",
    "stop_distance_side_1": "",
    "num_shelters_side_2": "",
    "stop_distance_side_2": "",
    "space_around": "",
    "ward_name": "Bellanduru",
    "ward_number": 150
  },
  {
    "stop_id": "405",
    "stop_name": "Rajapalya",
    "lat": "12.99129818",
    "lon": "77.72117091",
    "num_shelters_side_1": "",
    "stop_distance_side_1": "",
    "num_shelters_side_2": "",
    "stop_distance_side_2": "",
    "space_around": "",
    "ward_name": "Hudi",
    "ward_number": 54
  },
  {
    "stop_id": "142",
    "stop_name": "Ramagondanahalli Varthur",
    "lat": "12.95689538",
    "lon": "77.73969932",
    "num_shelters_side_1": "",
    "stop_distance_side_1": "",
    "num_shelters_side_2": "",
    "stop_distance_side_2": "",
    "space_around": "",
    "ward_name": "Hagadur",
    "ward_number": 84
  },
  {
    "stop_id": "1748",
    "stop_name": "Rampura",
    "lat": "13.05158203",
    "lon": "77.69118600",
    "num_shelters_side_1": "",
    "stop_distance_side_1": "",
    "num_shelters_side_2": "",
    "stop_distance_side_2": "",
    "space_around": "",
    "ward_name": "Outside BBMP Limits",
    "ward_number": "Outside BBMP Limits"
  },
  {
    "stop_id": "9153",
    "stop_name": "Sadaramangala",
    "lat": "12.99770266",
    "lon": "77.73664802",
    "num_shelters_side_1": "",
    "stop_distance_side_1": "",
    "num_shelters_side_2": "",
    "stop_distance_side_2": "",
    "space_around": "",
    "ward_name": "Hudi",
    "ward_number": 54
  },
  {
    "stop_id": "2070",
    "stop_name": "Safal Market",
    "lat": "13.03804851",
    "lon": "77.75993150",
    "num_shelters_side_1": "",
    "stop_distance_side_1": "",
    "num_shelters_side_2": "",
    "stop_distance_side_2": "",
    "space_around": "",
    "ward_name": "Outside BBMP Limits",
    "ward_number": "Outside BBMP Limits"
  },
  {
    "stop_id": "6922",
    "stop_name": "Sai Baba General Hospital",
    "lat": "12.97389787",
    "lon": "77.75057405",
    "num_shelters_side_1": "",
    "stop_distance_side_1": "",
    "num_shelters_side_2": "",
    "stop_distance_side_2": "",
    "space_around": "",
    "ward_name": "Hagadur",
    "ward_number": 84
  },
  {
    "stop_id": "2081",
    "stop_name": "Sai Lakshmi Industries",
    "lat": "13.02447953",
    "lon": "77.76174941",
    "num_shelters_side_1": "",
    "stop_distance_side_1": "",
    "num_shelters_side_2": "",
    "stop_distance_side_2": "",
    "space_around": "",
    "ward_name": "Outside BBMP Limits",
    "ward_number": "Outside BBMP Limits"
  },
  {
    "stop_id": "7064",
    "stop_name": "Sannathammanahalli",
    "lat": "13.04790791",
    "lon": "77.76063502",
    "num_shelters_side_1": "",
    "stop_distance_side_1": "",
    "num_shelters_side_2": "",
    "stop_distance_side_2": "",
    "space_around": "",
    "ward_name": "Outside BBMP Limits",
    "ward_number": "Outside BBMP Limits"
  },
  {
    "stop_id": "6911",
    "stop_name": "SAP Labs White Field",
    "lat": "12.97763418",
    "lon": "77.71446348",
    "num_shelters_side_1": "",
    "stop_distance_side_1": "",
    "num_shelters_side_2": "",
    "stop_distance_side_2": "",
    "space_around": "",
    "ward_name": "Dodda Nekkundi",
    "ward_number": 85
  },
  {
    "stop_id": "629",
    "stop_name": "Sapthagiri Convention Hall Hoskote Road",
    "lat": "13.05030602",
    "lon": "77.75662613",
    "num_shelters_side_1": "",
    "stop_distance_side_1": "",
    "num_shelters_side_2": "",
    "stop_distance_side_2": "",
    "space_around": "",
    "ward_name": "Outside BBMP Limits",
    "ward_number": "Outside BBMP Limits"
  },
  {
    "stop_id": "2046",
    "stop_name": "Sathya Sai Baba Mandir",
    "lat": "13.00093071",
    "lon": "77.75757186",
    "num_shelters_side_1": "",
    "stop_distance_side_1": "",
    "num_shelters_side_2": "",
    "stop_distance_side_2": "",
    "space_around": "",
    "ward_name": "Kadugodi",
    "ward_number": 83
  },
  {
    "stop_id": "2050",
    "stop_name": "Sathya Sai Hospital",
    "lat": "12.98245540",
    "lon": "77.72780105",
    "num_shelters_side_1": "",
    "stop_distance_side_1": "",
    "num_shelters_side_2": "",
    "stop_distance_side_2": "",
    "space_around": "",
    "ward_name": "Garudachar Playa",
    "ward_number": 82
  },
  {
    "stop_id": "9469",
    "stop_name": "Seegehalli Gate Hope Form",
    "lat": "13.01323740",
    "lon": "77.76110239",
    "num_shelters_side_1": "",
    "stop_distance_side_1": "",
    "num_shelters_side_2": "",
    "stop_distance_side_2": "",
    "space_around": "",
    "ward_name": "Outside BBMP Limits",
    "ward_number": "Outside BBMP Limits"
  },
  {
    "stop_id": "16031",
    "stop_name": "Seegehalli Gate( Kadugodi)",
    "lat": "13.01343373",
    "lon": "77.76118118",
    "num_shelters_side_1": "",
    "stop_distance_side_1": "",
    "num_shelters_side_2": "",
    "stop_distance_side_2": "",
    "space_around": "",
    "ward_name": "Outside BBMP Limits",
    "ward_number": "Outside BBMP Limits"
  },
  {
    "stop_id": "2088",
    "stop_name": "Seegehalli Kadugodi",
    "lat": "13.01188920",
    "lon": "77.76467509",
    "num_shelters_side_1": "",
    "stop_distance_side_1": "",
    "num_shelters_side_2": "",
    "stop_distance_side_2": "",
    "space_around": "",
    "ward_name": "Outside BBMP Limits",
    "ward_number": "Outside BBMP Limits"
  },
  {
    "stop_id": "8837",
    "stop_name": "Seetharampalya Hoodi",
    "lat": "12.98509391",
    "lon": "77.71851361",
    "num_shelters_side_1": "",
    "stop_distance_side_1": "",
    "num_shelters_side_2": "",
    "stop_distance_side_2": "",
    "space_around": "",
    "ward_name": "Garudachar Playa",
    "ward_number": 82
  },
  {
    "stop_id": "2084",
    "stop_name": "Shell Petrol Bunk Khaji Sonnenahalli",
    "lat": "13.01761897",
    "lon": "77.76219562",
    "num_shelters_side_1": "",
    "stop_distance_side_1": "",
    "num_shelters_side_2": "",
    "stop_distance_side_2": "",
    "space_around": "",
    "ward_name": "Outside BBMP Limits",
    "ward_number": "Outside BBMP Limits"
  },
  {
    "stop_id": "5410",
    "stop_name": "Shrungarapura",
    "lat": "13.09956492",
    "lon": "77.74370738",
    "num_shelters_side_1": "",
    "stop_distance_side_1": "",
    "num_shelters_side_2": "",
    "stop_distance_side_2": "",
    "space_around": "",
    "ward_name": "Outside BBMP Limits",
    "ward_number": "Outside BBMP Limits"
  },
  {
    "stop_id": "143",
    "stop_name": "Siddapura Varthur",
    "lat": "12.95606013",
    "lon": "77.73072328",
    "num_shelters_side_1": "",
    "stop_distance_side_1": "",
    "num_shelters_side_2": "",
    "stop_distance_side_2": "",
    "space_around": "",
    "ward_name": "Hagadur",
    "ward_number": 84
  },
  {
    "stop_id": "2630",
    "stop_name": "Singaiahnapalya Phoenix Mall",
    "lat": "12.99620607",
    "lon": "77.69374524",
    "num_shelters_side_1": "",
    "stop_distance_side_1": "",
    "num_shelters_side_2": "",
    "stop_distance_side_2": "",
    "space_around": "",
    "ward_name": "Devasandra",
    "ward_number": 55
  },
  {
    "stop_id": "5380",
    "stop_name": "SKF Factory",
    "lat": "13.06125592",
    "lon": "77.74195582",
    "num_shelters_side_1": "",
    "stop_distance_side_1": "",
    "num_shelters_side_2": "",
    "stop_distance_side_2": "",
    "space_around": "",
    "ward_name": "Outside BBMP Limits",
    "ward_number": "Outside BBMP Limits"
  },
  {
    "stop_id": "2101",
    "stop_name": "Skylark Arcadia Sadaramangala",
    "lat": "13.00635750",
    "lon": "77.73560719",
    "num_shelters_side_1": "",
    "stop_distance_side_1": "",
    "num_shelters_side_2": "",
    "stop_distance_side_2": "",
    "space_around": "",
    "ward_name": "Hudi",
    "ward_number": 54
  },
  {
    "stop_id": "931",
    "stop_name": "Somasundarpalya",
    "lat": "12.89879995",
    "lon": "77.65129607",
    "num_shelters_side_1": "",
    "stop_distance_side_1": "",
    "num_shelters_side_2": "",
    "stop_distance_side_2": "",
    "space_around": "",
    "ward_name": "HSR Layout",
    "ward_number": 174
  },
  {
    "stop_id": "1161",
    "stop_name": "Sonnappanahalli Hosuru Bande",
    "lat": "13.10752013",
    "lon": "77.66578470",
    "num_shelters_side_1": "",
    "stop_distance_side_1": "",
    "num_shelters_side_2": "",
    "stop_distance_side_2": "",
    "space_around": "",
    "ward_name": "Outside BBMP Limits",
    "ward_number": "Outside BBMP Limits"
  },
  {
    "stop_id": "3550",
    "stop_name": "Sorahunse Varthur",
    "lat": "12.94330850",
    "lon": "77.75094155",
    "num_shelters_side_1": "",
    "stop_distance_side_1": "",
    "num_shelters_side_2": "",
    "stop_distance_side_2": "",
    "space_around": "",
    "ward_name": "Varthuru",
    "ward_number": 149
  },
  {
    "stop_id": "5515",
    "stop_name": "Sri Rama Layout Avalahalli road",
    "lat": "13.03958289",
    "lon": "77.72956431",
    "num_shelters_side_1": "",
    "stop_distance_side_1": "",
    "num_shelters_side_2": "",
    "stop_distance_side_2": "",
    "space_around": "",
    "ward_name": "Outside BBMP Limits",
    "ward_number": "Outside BBMP Limits"
  },
  {
    "stop_id": "14941",
    "stop_name": "St Michael School Hennuru Bande ",
    "lat": "13.05125725",
    "lon": "77.64548242",
    "num_shelters_side_1": "",
    "stop_distance_side_1": "",
    "num_shelters_side_2": "",
    "stop_distance_side_2": "",
    "space_around": "",
    "ward_name": "Horamavu",
    "ward_number": 25
  },
  {
    "stop_id": "16345",
    "stop_name": "ST PeterSchool Kaikondrahalli",
    "lat": "12.91392756",
    "lon": "77.67824293",
    "num_shelters_side_1": "",
    "stop_distance_side_1": "",
    "num_shelters_side_2": "",
    "stop_distance_side_2": "",
    "space_around": "",
    "ward_name": "Bellanduru",
    "ward_number": 150
  },
  {
    "stop_id": "2131",
    "stop_name": "Sulikunte Sarjapura Road",
    "lat": "12.89228812",
    "lon": "77.72843449",
    "num_shelters_side_1": "",
    "stop_distance_side_1": "",
    "num_shelters_side_2": "",
    "stop_distance_side_2": "",
    "space_around": "",
    "ward_name": "Outside BBMP Limits",
    "ward_number": "Outside BBMP Limits"
  },
  {
    "stop_id": "934",
    "stop_name": "SVR College Somasundarapalya",
    "lat": "12.90224713",
    "lon": "77.65057922",
    "num_shelters_side_1": "",
    "stop_distance_side_1": "",
    "num_shelters_side_2": "",
    "stop_distance_side_2": "",
    "space_around": "",
    "ward_name": "HSR Layout",
    "ward_number": 174
  },
  {
    "stop_id": "15427",
    "stop_name": "TATA ELEXI Limited ",
    "lat": "12.98488970",
    "lon": "77.74049230",
    "num_shelters_side_1": "",
    "stop_distance_side_1": "",
    "num_shelters_side_2": "",
    "stop_distance_side_2": "",
    "space_around": "",
    "ward_name": "Garudachar Playa",
    "ward_number": 82
  },
  {
    "stop_id": "16117",
    "stop_name": "TATA ELEXI LTD ITPL Road",
    "lat": "12.99009207",
    "lon": "77.72500455",
    "num_shelters_side_1": "",
    "stop_distance_side_1": "",
    "num_shelters_side_2": "",
    "stop_distance_side_2": "",
    "space_around": "",
    "ward_name": "Hudi",
    "ward_number": 54
  },
  {
    "stop_id": "2431",
    "stop_name": "Tavakkal Hospital",
    "lat": "13.10573967",
    "lon": "77.66466549",
    "num_shelters_side_1": "",
    "stop_distance_side_1": "",
    "num_shelters_side_2": "",
    "stop_distance_side_2": "",
    "space_around": "",
    "ward_name": "Outside BBMP Limits",
    "ward_number": "Outside BBMP Limits"
  },
  {
    "stop_id": "2190",
    "stop_name": "Thirumalashettyhalli Cross",
    "lat": "12.98595124",
    "lon": "77.78138976",
    "num_shelters_side_1": "",
    "stop_distance_side_1": "",
    "num_shelters_side_2": "",
    "stop_distance_side_2": "",
    "space_around": "",
    "ward_name": "Outside BBMP Limits",
    "ward_number": "Outside BBMP Limits"
  },
  {
    "stop_id": "5416",
    "stop_name": "Thirumenahalli Andrahalli",
    "lat": "13.11044634",
    "lon": "77.74516301",
    "num_shelters_side_1": "",
    "stop_distance_side_1": "",
    "num_shelters_side_2": "",
    "stop_distance_side_2": "",
    "space_around": "",
    "ward_name": "Outside BBMP Limits",
    "ward_number": "Outside BBMP Limits"
  },
  {
    "stop_id": "135",
    "stop_name": "Thubarahalli",
    "lat": "12.95573591",
    "lon": "77.72035565",
    "num_shelters_side_1": "",
    "stop_distance_side_1": "",
    "num_shelters_side_2": "",
    "stop_distance_side_2": "",
    "space_around": "",
    "ward_name": "Dodda Nekkundi",
    "ward_number": 85
  },
  {
    "stop_id": "3418",
    "stop_name": "Vagdevi Vilas School",
    "lat": "12.93226589",
    "lon": "77.76067693",
    "num_shelters_side_1": "",
    "stop_distance_side_1": "",
    "num_shelters_side_2": "",
    "stop_distance_side_2": "",
    "space_around": "",
    "ward_name": "Varthuru",
    "ward_number": 149
  },
  {
    "stop_id": "8775",
    "stop_name": "Valepura Gate Varthur",
    "lat": "12.94894105",
    "lon": "77.77236700",
    "num_shelters_side_1": "",
    "stop_distance_side_1": "",
    "num_shelters_side_2": "",
    "stop_distance_side_2": "",
    "space_around": "",
    "ward_name": "Outside BBMP Limits",
    "ward_number": "Outside BBMP Limits"
  },
  {
    "stop_id": "3539",
    "stop_name": "Valepura Varthur",
    "lat": "12.94637584",
    "lon": "77.76680471",
    "num_shelters_side_1": "",
    "stop_distance_side_1": "",
    "num_shelters_side_2": "",
    "stop_distance_side_2": "",
    "space_around": "",
    "ward_name": "Outside BBMP Limits",
    "ward_number": "Outside BBMP Limits"
  },
  {
    "stop_id": "6927",
    "stop_name": "Varthur Forum Mall",
    "lat": "12.95986169",
    "lon": "77.74686992",
    "num_shelters_side_1": "",
    "stop_distance_side_1": "",
    "num_shelters_side_2": "",
    "stop_distance_side_2": "",
    "space_around": "",
    "ward_name": "Hagadur",
    "ward_number": 84
  },
  {
    "stop_id": "141",
    "stop_name": "Varthur Kodi",
    "lat": "12.95696911",
    "lon": "77.74539676",
    "num_shelters_side_1": "",
    "stop_distance_side_1": "",
    "num_shelters_side_2": "",
    "stop_distance_side_2": "",
    "space_around": "",
    "ward_name": "Varthuru",
    "ward_number": 149
  },
  {
    "stop_id": "3420",
    "stop_name": "Varthur Suryanagara Apartment",
    "lat": "12.93125920",
    "lon": "77.76264349",
    "num_shelters_side_1": "",
    "stop_distance_side_1": "",
    "num_shelters_side_2": "",
    "stop_distance_side_2": "",
    "space_around": "",
    "ward_name": "Varthuru",
    "ward_number": 149
  },
  {
    "stop_id": "6982",
    "stop_name": "Varthuru Gunjur",
    "lat": "12.93810406",
    "lon": "77.74675056",
    "num_shelters_side_1": "",
    "stop_distance_side_1": "",
    "num_shelters_side_2": "",
    "stop_distance_side_2": "",
    "space_around": "",
    "ward_name": "Varthuru",
    "ward_number": 149
  },
  {
    "stop_id": "7015",
    "stop_name": "Vijayanagara White Field",
    "lat": "12.97534979",
    "lon": "77.75467917",
    "num_shelters_side_1": "",
    "stop_distance_side_1": "",
    "num_shelters_side_2": "",
    "stop_distance_side_2": "",
    "space_around": "",
    "ward_name": "Hagadur",
    "ward_number": 84
  },
  {
    "stop_id": "2283",
    "stop_name": "Vinayakanagara Gunjur",
    "lat": "12.92859375",
    "lon": "77.73947835",
    "num_shelters_side_1": "",
    "stop_distance_side_1": "",
    "num_shelters_side_2": "",
    "stop_distance_side_2": "",
    "space_around": "",
    "ward_name": "Varthuru",
    "ward_number": 149
  },
  {
    "stop_id": "1181",
    "stop_name": "Visthar Dodda Gubbi",
    "lat": "13.06935696",
    "lon": "77.65926935",
    "num_shelters_side_1": "",
    "stop_distance_side_1": "",
    "num_shelters_side_2": "",
    "stop_distance_side_2": "",
    "space_around": "",
    "ward_name": "Horamavu",
    "ward_number": 25
  },
  {
    "stop_id": "8732",
    "stop_name": "White Field Post Office",
    "lat": "12.96981779",
    "lon": "77.75016367",
    "num_shelters_side_1": "",
    "stop_distance_side_1": "",
    "num_shelters_side_2": "",
    "stop_distance_side_2": "",
    "space_around": "",
    "ward_name": "Hagadur",
    "ward_number": 84
  },
  {
    "stop_id": "9466",
    "stop_name": "White Field TTMC",
    "lat": "12.97738718",
    "lon": "77.72693038",
    "num_shelters_side_1": "",
    "stop_distance_side_1": "",
    "num_shelters_side_2": "",
    "stop_distance_side_2": "",
    "space_around": "",
    "ward_name": "Garudachar Playa",
    "ward_number": 82
  },
  {
    "stop_id": "7473",
    "stop_name": "Whitefield ESI",
    "lat": "12.99075657",
    "lon": "77.70640612",
    "num_shelters_side_1": "",
    "stop_distance_side_1": "",
    "num_shelters_side_2": "",
    "stop_distance_side_2": "",
    "space_around": "",
    "ward_name": "Garudachar Playa",
    "ward_number": 82
  },
  {
    "stop_id": "10980",
    "stop_name": "Wipro Sarjapura Road",
    "lat": "12.91250665",
    "lon": "77.68418938",
    "num_shelters_side_1": "",
    "stop_distance_side_1": "",
    "num_shelters_side_2": "",
    "stop_distance_side_2": "",
    "space_around": "",
    "ward_name": "Bellanduru",
    "ward_number": 150
  },
  {
    "stop_id": "9740",
    "stop_name": "Yamalur",
    "lat": "12.94845117",
    "lon": "77.68072329",
    "num_shelters_side_1": "",
    "stop_distance_side_1": "",
    "num_shelters_side_2": "",
    "stop_distance_side_2": "",
    "space_around": "",
    "ward_name": "Marathahalli",
    "ward_number": 86
  },
  {
    "stop_id": "148",
    "stop_name": "Yamalur Cross",
    "lat": "12.95508381",
    "lon": "77.68799211",
    "num_shelters_side_1": "",
    "stop_distance_side_1": "",
    "num_shelters_side_2": "",
    "stop_distance_side_2": "",
    "space_around": "",
    "ward_name": "Marathahalli",
    "ward_number": 86
  },
  {
    "stop_id": "5628",
    "stop_name": "Yarappana Bande",
    "lat": "13.09286319",
    "lon": "77.68057108",
    "num_shelters_side_1": "",
    "stop_distance_side_1": "",
    "num_shelters_side_2": "",
    "stop_distance_side_2": "",
    "space_around": "",
    "ward_name": "Outside BBMP Limits",
    "ward_number": "Outside BBMP Limits"
  },
  {
    "stop_id": "1725",
    "stop_name": "Yarappanahalli Kada Agrahara",
    "lat": "13.08535189",
    "lon": "77.68715788",
    "num_shelters_side_1": "",
    "stop_distance_side_1": "",
    "num_shelters_side_2": "",
    "stop_distance_side_2": "",
    "space_around": "",
    "ward_name": "Outside BBMP Limits",
    "ward_number": "Outside BBMP Limits"
  },
  {
    "stop_id": "9589",
    "stop_name": "Yellappa Reddy House Panathur",
    "lat": "12.93816419",
    "lon": "77.71511793",
    "num_shelters_side_1": "",
    "stop_distance_side_1": "",
    "num_shelters_side_2": "",
    "stop_distance_side_2": "",
    "space_around": "",
    "ward_name": "Varthuru",
    "ward_number": 149
  }
]
