[{"id": "15270", "name": "\tErnst and Young Garudacharapalya", "lat": "12.99206269", "lon": "77.70343959", "stop_dist": "0.00"}, {"id": "6853", "name": "Abbaiah Layout", "lat": "12.97932654", "lon": "77.68081784", "stop_dist": "0.00"}, {"id": "1699", "name": "Aduru Bidrahalli", "lat": "13.05552872", "lon": "77.70571225", "stop_dist": "0.00"}, {"id": "8850", "name": "Ajjagondanahalli", "lat": "12.95708745", "lon": "77.76840001", "stop_dist": "0.00"}, {"id": "1759", "name": "Akshayanagara", "lat": "13.02072222", "lon": "77.68338951", "stop_dist": "0.00"}, {"id": "12215", "name": "Alfa College Chikka Gubbi", "lat": "13.07698840", "lon": "77.66201223", "stop_dist": "0.00"}, {"id": "2128", "name": "Ambedkarnagara", "lat": "12.89901684", "lon": "77.71313221", "stop_dist": "0.00"}, {"id": "11414", "name": "AMD India Pvt Ltd Whitefield", "lat": "12.97500347", "lon": "77.72545852", "stop_dist": "0.00"}, {"id": "1717", "name": "Amogha Layout", "lat": "13.07508963", "lon": "77.71806440", "stop_dist": "0.00"}, {"id": "6980", "name": "Amritha Engineering College Kasavanahalli", "lat": "12.89679698", "lon": "77.67519660", "stop_dist": "0.00"}, {"id": "5517", "name": "Anagalipura", "lat": "13.07303285", "lon": "77.67888397", "stop_dist": "0.00"}, {"id": "6831", "name": "Anagalpura Cross", "lat": "13.06171179", "lon": "77.68666774", "stop_dist": "0.00"}, {"id": "1689", "name": "Anandapura", "lat": "13.02422515", "lon": "77.69285292", "stop_dist": "0.00"}, {"id": "15595", "name": "AOL Head Strong ORR", "lat": "12.92010654", "lon": "77.68765479", "stop_dist": "0.00"}, {"id": "9797", "name": "Ashwathpura Marathahalli", "lat": "12.96118954", "lon": "77.70406991", "stop_dist": "0.00"}, {"id": "5706", "name": "Avalahalli Hoskote", "lat": "13.03534724", "lon": "77.73549132", "stop_dist": "0.00"}, {"id": "15936", "name": "Ayyappanagara Hoodi", "lat": "13.00150918", "lon": "77.71445006", "stop_dist": "0.00"}, {"id": "2030", "name": "Ayyappanagara KR Puram", "lat": "13.00450683", "lon": "77.71239878", "stop_dist": "0.00"}, {"id": "2029", "name": "Ayyappanagara Sadaramangala", "lat": "13.00430618", "lon": "77.71001823", "stop_dist": "0.00"}, {"id": "7233", "name": "B Nagasandra", "lat": "12.94368121", "lon": "77.65362829", "stop_dist": "0.00"}, {"id": "13953", "name": "Bagmane World Technology Center Doddanekkundi", "lat": "12.98264851", "lon": "77.69301116", "stop_dist": "0.00"}, {"id": "8783", "name": "Balagere Varthuru", "lat": "12.93962843", "lon": "77.72904128", "stop_dist": "0.00"}, {"id": "631", "name": "Bandapura Gate", "lat": "13.04153526", "lon": "77.74428367", "stop_dist": "0.00"}, {"id": "1735", "name": "Bande Bommasandra", "lat": "13.07663952", "lon": "77.68071504", "stop_dist": "0.00"}, {"id": "1716", "name": "Bayyapannahalli", "lat": "13.07163802", "lon": "77.72080307", "stop_dist": "0.00"}, {"id": "2595", "name": "Bellanduru", "lat": "12.92472569", "lon": "77.67429431", "stop_dist": "0.00"}, {"id": "2123", "name": "Bellanduru Gate SJP Road", "lat": "12.91857787", "lon": "77.66991416", "stop_dist": "0.00"}, {"id": "2047", "name": "Bellathur", "lat": "13.00410489", "lon": "77.75691881", "stop_dist": "0.00"}, {"id": "2094", "name": "Bellathur Colony", "lat": "12.99960446", "lon": "77.75268462", "stop_dist": "0.00"}, {"id": "6908", "name": "BEML Gate Kundanahalli", "lat": "12.96097783", "lon": "77.71652609", "stop_dist": "0.00"}, {"id": "5392", "name": "Bendiganahalli Hoskote", "lat": "13.06710150", "lon": "77.75759132", "stop_dist": "0.00"}, {"id": "6294", "name": "Bhakthi Yoga Ashrama", "lat": "13.02261580", "lon": "77.68929630", "stop_dist": "0.00"}, {"id": "9753", "name": "Bhoganahalli", "lat": "12.92643830", "lon": "77.70108193", "stop_dist": "0.00"}, {"id": "2437", "name": "Bible Cross", "lat": "13.07127889", "lon": "77.65162195", "stop_dist": "0.00"}, {"id": "1702", "name": "Bidrahalli", "lat": "13.05690943", "lon": "77.71508908", "stop_dist": "0.00"}, {"id": "7385", "name": "Big Bazar ITPL", "lat": "12.98822336", "lon": "77.73193404", "stop_dist": "0.00"}, {"id": "2406", "name": "Bileshivale", "lat": "13.05451211", "lon": "77.67101244", "stop_dist": "0.00"}, {"id": "2338", "name": "Birla Hurlur Road", "lat": "12.89406503", "lon": "77.65712101", "stop_dist": "0.00"}, {"id": "11460", "name": "BM English School Kannuru", "lat": "13.10691453", "lon": "77.66969740", "stop_dist": "0.00"}, {"id": "5383", "name": "Bommenahalli", "lat": "13.07103020", "lon": "77.74503887", "stop_dist": "0.00"}, {"id": "6917", "name": "BPL ITPL", "lat": "12.98530919", "lon": "77.74801791", "stop_dist": "0.00"}, {"id": "11729", "name": "Brand Factory  Marathahalli Bridge", "lat": "12.95639304", "lon": "77.69682527", "stop_dist": "0.00"}, {"id": "6941", "name": "Brook Steel ESI ITPL", "lat": "12.99310549", "lon": "77.70546734", "stop_dist": "0.00"}, {"id": "138", "name": "Brooke Bond", "lat": "12.96396766", "lon": "77.74832851", "stop_dist": "0.00"}, {"id": "1673", "name": "Budigere Cross", "lat": "13.04585768", "lon": "77.75026017", "stop_dist": "0.00"}, {"id": "5871", "name": "Budigere Cross Hoskote", "lat": "13.04656746", "lon": "77.75014758", "stop_dist": "0.00"}, {"id": "1177", "name": "Byrathi Bande", "lat": "13.07782161", "lon": "77.65341241", "stop_dist": "0.00"}, {"id": "1189", "name": "Byrathi Cross Hennuru", "lat": "13.05698661", "lon": "77.64836274", "stop_dist": "0.00"}, {"id": "12198", "name": "Byrathi Hennuru", "lat": "13.05601970", "lon": "77.65196398", "stop_dist": "0.00"}, {"id": "10963", "name": "CAP Gemini Garudacharpalya", "lat": "12.99166801", "lon": "77.70286627", "stop_dist": "0.00"}, {"id": "10231", "name": "CAP Gemini Prestige Shanthiniketan", "lat": "12.98954580", "lon": "77.72889644", "stop_dist": "0.00"}, {"id": "3632", "name": "Carmelram Gate", "lat": "12.90343982", "lon": "77.70391301", "stop_dist": "0.00"}, {"id": "12542", "name": "Carmelram Railway Station", "lat": "12.90719613", "lon": "77.70536877", "stop_dist": "0.00"}, {"id": "6962", "name": "Carmelram School Railway Gate", "lat": "12.90950467", "lon": "77.70589515", "stop_dist": "0.00"}, {"id": "2093", "name": "Central Bank Kadugodi", "lat": "12.99774694", "lon": "77.75781477", "stop_dist": "0.00"}, {"id": "2082", "name": "Chaithanya Samarpan apartment", "lat": "13.02183505", "lon": "77.76203544", "stop_dist": "0.00"}, {"id": "7237", "name": "Challaghatta B Nagasandra", "lat": "12.94609986", "lon": "77.64908127", "stop_dist": "0.00"}, {"id": "2278", "name": "Channasandra", "lat": "12.98332232", "lon": "77.76815321", "stop_dist": "0.00"}, {"id": "2279", "name": "Channasandra MVJ College", "lat": "12.98285859", "lon": "77.76129262", "stop_dist": "0.00"}, {"id": "633", "name": "Cheemasandra Budigere Cross", "lat": "13.03891867", "lon": "77.74057609", "stop_dist": "0.00"}, {"id": "6815", "name": "Chennanahalli", "lat": "13.03132814", "lon": "77.74300218", "stop_dist": "0.00"}, {"id": "7066", "name": "Chikka Banahalli", "lat": "13.01989737", "lon": "77.75140352", "stop_dist": "0.00"}, {"id": "6959", "name": "Chikka Bellanduru", "lat": "12.91227005", "lon": "77.71435216", "stop_dist": "0.00"}, {"id": "2028", "name": "Chikka Devasandra KR Puram", "lat": "13.00442103", "lon": "77.70583134", "stop_dist": "0.00"}, {"id": "12210", "name": "Chikka Gubbi", "lat": "13.08050438", "lon": "77.66627423", "stop_dist": "0.00"}, {"id": "2412", "name": "Chikka Gubbi Cross", "lat": "13.08431180", "lon": "77.65428818", "stop_dist": "0.00"}, {"id": "9586", "name": "Chikka Nekkundi", "lat": "12.92984790", "lon": "77.76570104", "stop_dist": "0.00"}, {"id": "2373", "name": "Chikkanayakanahalli Dinne", "lat": "12.88392477", "lon": "77.69698080", "stop_dist": "0.00"}, {"id": "5524", "name": "Chikkanayakanahalli Huskuru Road", "lat": "12.89230973", "lon": "77.69445486", "stop_dist": "0.00"}, {"id": "9790", "name": "Chinnappanahalli", "lat": "12.96909704", "lon": "77.70622507", "stop_dist": "0.00"}, {"id": "6992", "name": "Chokkasandra Cross", "lat": "12.87352578", "lon": "77.73404024", "stop_dist": "0.00"}, {"id": "2389", "name": "Choodasandra", "lat": "12.88925510", "lon": "77.68133251", "stop_dist": "0.00"}, {"id": "8972", "name": "Christal House Learning School", "lat": "13.09439257", "lon": "77.65173197", "stop_dist": "0.00"}, {"id": "2413", "name": "Church  Byrathibande", "lat": "13.08664096", "lon": "77.65489110", "stop_dist": "0.00"}, {"id": "635", "name": "Cipla Avalahalli", "lat": "13.03224368", "lon": "77.73126138", "stop_dist": "0.00"}, {"id": "2067", "name": "CMRIT College", "lat": "12.96765542", "lon": "77.71437320", "stop_dist": "0.00"}, {"id": "2594", "name": "CS-Eco Space Intel Ring Road", "lat": "12.92775040", "lon": "77.68052028", "stop_dist": "0.00"}, {"id": "11467", "name": "CS-Ernst and Young Garudacharapalya", "lat": "12.99218814", "lon": "77.70342886", "stop_dist": "0.00"}, {"id": "11622", "name": "CS-Poorva Fountain Apartment", "lat": "12.95837175", "lon": "77.70461977", "stop_dist": "0.00"}, {"id": "11447", "name": "CS-St Michael School Hennuru Bande", "lat": "13.05129689", "lon": "77.64528930", "stop_dist": "0.00"}, {"id": "11434", "name": "CS-Tata Elexsi Brigade Teck Park", "lat": "12.98561498", "lon": "77.74061501", "stop_dist": "0.00"}, {"id": "11763", "name": "CS-TESC Tech Park Vydehi Hospital", "lat": "12.97450948", "lon": "77.72733741", "stop_dist": "0.00"}, {"id": "5630", "name": "D Group Employees Layout", "lat": "13.09294679", "lon": "77.68534542", "stop_dist": "0.00"}, {"id": "12273", "name": "Dattatreya Peeta Doddagubbi", "lat": "13.06738937", "lon": "77.66464949", "stop_dist": "0.00"}, {"id": "5923", "name": "Dell Domlur", "lat": "12.95129318", "lon": "77.63976072", "stop_dist": "0.00"}, {"id": "2593", "name": "Devarabisanahalli Cross", "lat": "12.93143035", "lon": "77.68688876", "stop_dist": "0.00"}, {"id": "6967", "name": "Devarabisanahalli Gear School", "lat": "12.91838371", "lon": "77.69758299", "stop_dist": "0.00"}, {"id": "6974", "name": "Devarabisanahalli last stop", "lat": "12.92401619", "lon": "77.69503557", "stop_dist": "0.00"}, {"id": "2592", "name": "Devarabisanahalli New Horizon College", "lat": "12.93531828", "lon": "77.69115796", "stop_dist": "0.00"}, {"id": "9455", "name": "Dinnur Kadugodi", "lat": "12.99158964", "lon": "77.75150209", "stop_dist": "0.00"}, {"id": "1731", "name": "Dodda Gubbi", "lat": "13.07092501", "lon": "77.67400680", "stop_dist": "0.00"}, {"id": "1715", "name": "Dodda Mori", "lat": "13.06539496", "lon": "77.71696200", "stop_dist": "0.00"}, {"id": "2580", "name": "Dodda Nekkundi", "lat": "12.97898227", "lon": "77.69516661", "stop_dist": "0.00"}, {"id": "6938", "name": "Dodda Nekkundi Cross", "lat": "12.95600618", "lon": "77.69178271", "stop_dist": "0.00"}, {"id": "6814", "name": "Doddabannahalli", "lat": "13.02394853", "lon": "77.74737954", "stop_dist": "0.00"}, {"id": "4159", "name": "Doddagattiganabbe", "lat": "13.03335664", "lon": "77.78551195", "stop_dist": "0.00"}, {"id": "9694", "name": "Doddakannalli Sarjapura Road", "lat": "12.90712619", "lon": "77.69565113", "stop_dist": "0.00"}, {"id": "2352", "name": "Doddamma Temple", "lat": "12.87847965", "lon": "77.69871903", "stop_dist": "0.00"}, {"id": "1233", "name": "Domlur Flyover", "lat": "12.95696427", "lon": "77.64140253", "stop_dist": "0.00"}, {"id": "12082", "name": "DRDO 2nd Sector Kempapura", "lat": "12.94445497", "lon": "77.66262844", "stop_dist": "0.00"}, {"id": "1706", "name": "East Point College Hirandahalli", "lat": "13.05014032", "lon": "77.71999897", "stop_dist": "0.00"}, {"id": "15528", "name": "ECO Space", "lat": "12.92789966", "lon": "77.68109813", "stop_dist": "0.00"}, {"id": "5555", "name": "EMC2", "lat": "12.98286708", "lon": "77.69288878", "stop_dist": "0.00"}, {"id": "6996", "name": "Gandhipura White Field", "lat": "12.96970147", "lon": "77.75241271", "stop_dist": "0.00"}, {"id": "6298", "name": "Garden City College TC Palya", "lat": "13.02443459", "lon": "77.70711690", "stop_dist": "0.00"}, {"id": "2633", "name": "Garudacharpalya", "lat": "12.99402101", "lon": "77.70171069", "stop_dist": "0.00"}, {"id": "11623", "name": "GBJ Colony Gate Marathahalli", "lat": "12.95753271", "lon": "77.69134015", "stop_dist": "0.00"}, {"id": "1197", "name": "Geddalahalli Hennur Main Road", "lat": "13.04839588", "lon": "77.64544539", "stop_dist": "0.00"}, {"id": "12213", "name": "Gollahalli Chikkagubbi", "lat": "13.08363493", "lon": "77.67537564", "stop_dist": "0.00"}, {"id": "2034", "name": "Goodshed Road Hoodi", "lat": "12.99876186", "lon": "77.74238301", "stop_dist": "0.00"}, {"id": "2069", "name": "Gorivegere Village", "lat": "13.04393269", "lon": "77.76061092", "stop_dist": "0.00"}, {"id": "6916", "name": "GR Tech Park ITPL", "lat": "12.98661599", "lon": "77.74426014", "stop_dist": "0.00"}, {"id": "5540", "name": "Grandwell", "lat": "13.06318802", "lon": "77.73989081", "stop_dist": "0.00"}, {"id": "2063", "name": "Graphite India", "lat": "12.97719646", "lon": "77.71013815", "stop_dist": "0.00"}, {"id": "11373", "name": "Graphite India Jn", "lat": "12.98532226", "lon": "77.70833731", "stop_dist": "0.00"}, {"id": "2408", "name": "Gubbi Cross", "lat": "13.06442077", "lon": "77.65187314", "stop_dist": "0.00"}, {"id": "5516", "name": "Gundur Marasandra", "lat": "13.08670469", "lon": "77.71500796", "stop_dist": "0.00"}, {"id": "392", "name": "Gunjuru", "lat": "12.92137000", "lon": "77.73641167", "stop_dist": "0.00"}, {"id": "2157", "name": "Gunjurupalya", "lat": "12.92212787", "lon": "77.71782423", "stop_dist": "0.00"}, {"id": "12330", "name": "Gunjurupalya Gate", "lat": "12.91726216", "lon": "77.72540823", "stop_dist": "0.00"}, {"id": "12388", "name": "Hado Siddapura", "lat": "12.89454517", "lon": "77.70064205", "stop_dist": "0.00"}, {"id": "7010", "name": "Hagaduru", "lat": "12.96846907", "lon": "77.75599480", "stop_dist": "0.00"}, {"id": "8613", "name": "Halanayakanahalli Sarjapura Road", "lat": "12.90147110", "lon": "77.68829584", "stop_dist": "0.00"}, {"id": "3416", "name": "Halasahalli Cross Gunjur", "lat": "12.93289290", "lon": "77.75818623", "stop_dist": "0.00"}, {"id": "7076", "name": "Halasahalli Gunjur", "lat": "12.92417633", "lon": "77.76235901", "stop_dist": "0.00"}, {"id": "5402", "name": "Hancharahalli", "lat": "13.09178959", "lon": "77.74164030", "stop_dist": "0.00"}, {"id": "11567", "name": "Hanumanthappa Layout Bileshivale", "lat": "13.05821060", "lon": "77.65368462", "stop_dist": "0.00"}, {"id": "8629", "name": "Haraluru Cross Sarjapura Road", "lat": "12.91878436", "lon": "77.66879417", "stop_dist": "0.00"}, {"id": "2337", "name": "Haraluru Sarjapura Road", "lat": "12.90146259", "lon": "77.66040769", "stop_dist": "0.00"}, {"id": "2168", "name": "Heggondanahalli", "lat": "12.90576379", "lon": "77.74654205", "stop_dist": "0.00"}, {"id": "1708", "name": "Hiranandahalli Hoskote", "lat": "13.04583430", "lon": "77.72253882", "stop_dist": "0.00"}, {"id": "406", "name": "Hoodi", "lat": "12.99228224", "lon": "77.71630953", "stop_dist": "0.00"}, {"id": "6919", "name": "Hope Farm", "lat": "12.98413044", "lon": "77.75247574", "stop_dist": "0.00"}, {"id": "8810", "name": "Hosahalli Varturu", "lat": "12.92030426", "lon": "77.74165034", "stop_dist": "0.00"}, {"id": "626", "name": "Hoskote Kodi", "lat": "13.05605429", "lon": "77.76743884", "stop_dist": "0.00"}, {"id": "8875", "name": "Hoskote Toll", "lat": "13.05938638", "lon": "77.77085155", "stop_dist": "0.00"}, {"id": "1145", "name": "Hosuru Bande", "lat": "13.10621691", "lon": "77.66088732", "stop_dist": "0.00"}, {"id": "15097", "name": "HP Softwere Company Mahadevapura", "lat": "12.99685327", "lon": "77.68925741", "stop_dist": "0.00"}, {"id": "12127", "name": "HSR Layout 22nd Cross", "lat": "12.90860857", "lon": "77.65179366", "stop_dist": "0.00"}, {"id": "5390", "name": "Huskur", "lat": "13.06060609", "lon": "77.76268738", "stop_dist": "0.00"}, {"id": "2061", "name": "I Gate", "lat": "12.97711710", "lon": "77.71878515", "stop_dist": "0.00"}, {"id": "5560", "name": "Ibbaluru Sarjapura Road", "lat": "12.92134441", "lon": "77.66195789", "stop_dist": "0.00"}, {"id": "8832", "name": "Immadihalli", "lat": "12.96673939", "lon": "77.76313484", "stop_dist": "0.00"}, {"id": "11559", "name": "ISRO Layout Karthiknagara", "lat": "12.96609568", "lon": "77.69496918", "stop_dist": "0.00"}, {"id": "6915", "name": "ITPL", "lat": "12.98769279", "lon": "77.73739233", "stop_dist": "0.00"}, {"id": "3548", "name": "Janthamane Varthur", "lat": "12.94203602", "lon": "77.75741570", "stop_dist": "0.00"}, {"id": "10012", "name": "Jinke Thimmanahalli", "lat": "13.02264323", "lon": "77.68611655", "stop_dist": "0.00"}, {"id": "1232", "name": "Jn of New Bridge", "lat": "12.95528894", "lon": "77.64129239", "stop_dist": "0.00"}, {"id": "2597", "name": "Jn of Sarjapura", "lat": "12.92092954", "lon": "77.66603753", "stop_dist": "0.00"}, {"id": "11405", "name": "John F Welch Technology Centre", "lat": "12.97370771", "lon": "77.72701688", "stop_dist": "0.00"}, {"id": "2125", "name": "Junnasandra Gate Wipro Regional Office", "lat": "12.91082098", "lon": "77.68447201", "stop_dist": "0.00"}, {"id": "5415", "name": "Jyothipura", "lat": "13.10270447", "lon": "77.75059743", "stop_dist": "0.00"}, {"id": "6810", "name": "K Dommasandra", "lat": "13.01082203", "lon": "77.74038970", "stop_dist": "0.00"}, {"id": "1194", "name": "K Narayanapura Cross Baglur Road", "lat": "13.05268852", "lon": "77.64613033", "stop_dist": "0.00"}, {"id": "5407", "name": "Kaatugollahalli", "lat": "13.09437151", "lon": "77.74285497", "stop_dist": "0.00"}, {"id": "2159", "name": "Kachamaranahalli", "lat": "12.91223117", "lon": "77.73349478", "stop_dist": "0.00"}, {"id": "9552", "name": "Kada Agrahara Yarappanahalli", "lat": "13.07971929", "lon": "77.68546410", "stop_dist": "0.00"}, {"id": "5557", "name": "Kadabisanahalli", "lat": "12.94177360", "lon": "77.69673541", "stop_dist": "0.00"}, {"id": "1173", "name": "Kadasonnappanahalli Gate", "lat": "13.10172730", "lon": "77.65827456", "stop_dist": "0.00"}, {"id": "9128", "name": "Kadugodi", "lat": "12.99655531", "lon": "77.76610136", "stop_dist": "0.00"}, {"id": "12284", "name": "Kadusonnappanahalli Village", "lat": "13.09888213", "lon": "77.66373083", "stop_dist": "0.00"}, {"id": "2124", "name": "Kaikondrahalli Sarjapura Road", "lat": "12.91395419", "lon": "77.67766761", "stop_dist": "0.00"}, {"id": "12633", "name": "Kalyani Platina Tech Park ", "lat": "12.97097961", "lon": "77.71756008", "stop_dist": "0.00"}, {"id": "6991", "name": "Kammasandra Gate", "lat": "12.87091621", "lon": "77.73376733", "stop_dist": "0.00"}, {"id": "1718", "name": "Kammasandra Hoskote", "lat": "13.07856265", "lon": "77.71635614", "stop_dist": "0.00"}, {"id": "2077", "name": "Kannamangala Hoskote", "lat": "13.03222214", "lon": "77.75864181", "stop_dist": "0.00"}, {"id": "2414", "name": "Kannuru", "lat": "13.09322686", "lon": "77.65424298", "stop_dist": "0.00"}, {"id": "2582", "name": "Karthiknagara", "lat": "12.96820330", "lon": "77.70167984", "stop_dist": "0.00"}, {"id": "6978", "name": "Kasavanahalli", "lat": "12.90495097", "lon": "77.67598786", "stop_dist": "0.00"}, {"id": "628", "name": "Katamanallur Gate", "lat": "13.05308024", "lon": "77.76140698", "stop_dist": "0.00"}, {"id": "6950", "name": "Kempapura HAL", "lat": "12.94657757", "lon": "77.67305017", "stop_dist": "0.00"}, {"id": "2073", "name": "Khaji Sonnenahalli", "lat": "13.03465601", "lon": "77.75908830", "stop_dist": "0.00"}, {"id": "9194", "name": "Kittaganuru", "lat": "13.03621595", "lon": "77.70880669", "stop_dist": "0.00"}, {"id": "7022", "name": "KK School Varthur", "lat": "12.93428350", "lon": "77.74342864", "stop_dist": "0.00"}, {"id": "8614", "name": "Kodandarama Nagara Sarjapura Road", "lat": "12.89947623", "lon": "77.68478751", "stop_dist": "0.00"}, {"id": "10697", "name": "Kodathi Silk Warm Seeds Technology", "lat": "12.88193546", "lon": "77.70850360", "stop_dist": "0.00"}, {"id": "2132", "name": "Kodathi Village", "lat": "12.89652318", "lon": "77.72025048", "stop_dist": "0.00"}, {"id": "9150", "name": "Kodigehalli Sadaramangala", "lat": "12.99618553", "lon": "77.71925792", "stop_dist": "0.00"}, {"id": "7061", "name": "Konadasapura", "lat": "13.04511465", "lon": "77.75640249", "stop_dist": "0.00"}, {"id": "5001", "name": "Kothanuru", "lat": "13.06197433", "lon": "77.64887344", "stop_dist": "0.00"}, {"id": "12237", "name": "Kristu Jayanti College", "lat": "13.05877494", "lon": "77.64293432", "stop_dist": "0.00"}, {"id": "2059", "name": "KTPO", "lat": "12.97677612", "lon": "77.72224499", "stop_dist": "0.00"}, {"id": "2339", "name": "Kudlu Hosuru Road ", "lat": "12.88945198", "lon": "77.65525144", "stop_dist": "0.00"}, {"id": "2095", "name": "Kumbena Agrahara", "lat": "13.00137215", "lon": "77.74760597", "stop_dist": "0.00"}, {"id": "2036", "name": "Kundalahalli", "lat": "12.95832429", "lon": "77.71559037", "stop_dist": "0.00"}, {"id": "9171", "name": "Kundalahalli AECS Layout", "lat": "12.96432876", "lon": "77.71385193", "stop_dist": "0.00"}, {"id": "2065", "name": "Kundalahalli Colony", "lat": "12.97053893", "lon": "77.71244322", "stop_dist": "0.00"}, {"id": "134", "name": "Kundalahalli Gate", "lat": "12.95585442", "lon": "77.71376455", "stop_dist": "0.00"}, {"id": "6808", "name": "Kurudu Sonnenahalli", "lat": "13.01409914", "lon": "77.73227602", "stop_dist": "0.00"}, {"id": "5388", "name": "Lagumenahalli Circle", "lat": "13.07214029", "lon": "77.75426013", "stop_dist": "0.00"}, {"id": "3547", "name": "Madhuranagara Varthur", "lat": "12.93980025", "lon": "77.76027446", "stop_dist": "0.00"}, {"id": "2629", "name": "Mahadevapura ITPL", "lat": "12.99735044", "lon": "77.69070948", "stop_dist": "0.00"}, {"id": "2578", "name": "Mahadevapura Ring Road", "lat": "12.99118394", "lon": "77.68761413", "stop_dist": "0.00"}, {"id": "5123", "name": "Mandur", "lat": "13.08176170", "lon": "77.73835928", "stop_dist": "0.00"}, {"id": "15643", "name": "Manhattan Park ORRCA EPIP Zone", "lat": "12.97118348", "lon": "77.71833256", "stop_dist": "0.00"}, {"id": "1710", "name": "Maragondanahalli Kittaganur", "lat": "13.03719575", "lon": "77.69297354", "stop_dist": "0.00"}, {"id": "1629", "name": "Marathahalli", "lat": "12.95609833", "lon": "77.69380013", "stop_dist": "0.00"}, {"id": "2584", "name": "Marathahalli Bridge", "lat": "12.95984663", "lon": "77.70139050", "stop_dist": "0.00"}, {"id": "6799", "name": "Military Bridge", "lat": "12.94605215", "lon": "77.64002144", "stop_dist": "0.00"}, {"id": "5624", "name": "Mittaganahalli", "lat": "13.10718753", "lon": "77.66343579", "stop_dist": "0.00"}, {"id": "6773", "name": "MR Nursing College", "lat": "13.05838304", "lon": "77.64868766", "stop_dist": "0.00"}, {"id": "5521", "name": "Mulluru Sarjapura", "lat": "12.90436533", "lon": "77.72448957", "stop_dist": "0.00"}, {"id": "12672", "name": "Multiplex Marathahalli", "lat": "12.95161475", "lon": "77.69968987", "stop_dist": "0.00"}, {"id": "6924", "name": "Munish Singh Hospital", "lat": "12.98057588", "lon": "77.75184274", "stop_dist": "0.00"}, {"id": "2074", "name": "Munnekolalu", "lat": "12.95629245", "lon": "77.70887399", "stop_dist": "0.00"}, {"id": "1368", "name": "Muttanalluru Cross", "lat": "12.88739997", "lon": "77.73841943", "stop_dist": "0.00"}, {"id": "2433", "name": "Nagenahalli Byrathi Bande", "lat": "13.08145663", "lon": "77.65337787", "stop_dist": "0.00"}, {"id": "8835", "name": "Nagondanahalli", "lat": "12.97526388", "lon": "77.77131289", "stop_dist": "0.00"}, {"id": "6945", "name": "Nallurahalli", "lat": "12.96933685", "lon": "77.73573607", "stop_dist": "0.00"}, {"id": "5397", "name": "New Baldwin International School", "lat": "13.07253831", "lon": "77.73721019", "stop_dist": "0.00"}, {"id": "5874", "name": "Nimbekaipura", "lat": "13.05852936", "lon": "77.75584996", "stop_dist": "0.00"}, {"id": "5627", "name": "Oasis School Kannuru", "lat": "13.08934244", "lon": "77.66633928", "stop_dist": "0.00"}, {"id": "8782", "name": "Panathuru Cirlce", "lat": "12.93560317", "lon": "77.70575970", "stop_dist": "0.00"}, {"id": "2153", "name": "Panathuru Dinne", "lat": "12.92927314", "lon": "77.71294618", "stop_dist": "0.00"}, {"id": "9751", "name": "Panathuru Kadabisanahalli", "lat": "12.93657415", "lon": "77.70367563", "stop_dist": "0.00"}, {"id": "9141", "name": "Parvathinagara", "lat": "13.03257460", "lon": "77.71483898", "stop_dist": "0.00"}, {"id": "9462", "name": "Pattandur Agrahara Gate", "lat": "12.98754644", "lon": "77.73372710", "stop_dist": "0.00"}, {"id": "9446", "name": "Pattandur Agrahara ITPL", "lat": "12.97831503", "lon": "77.73389608", "stop_dist": "0.00"}, {"id": "15639", "name": "Petrol Bunk Bellanduru", "lat": "12.92342930", "lon": "77.67067105", "stop_dist": "0.00"}, {"id": "2410", "name": "Poornaprajna School Byrathi", "lat": "13.07532678", "lon": "77.65159125", "stop_dist": "0.00"}, {"id": "14943", "name": "Poorva Fountain Apartment", "lat": "12.95851031", "lon": "77.70455003", "stop_dist": "0.00"}, {"id": "5400", "name": "Premium Farm Mandur", "lat": "13.07916652", "lon": "77.73700007", "stop_dist": "0.00"}, {"id": "11728", "name": "Prestige Tech Park Kadabisanahalli", "lat": "12.94316360", "lon": "77.69170493", "stop_dist": "0.00"}, {"id": "2371", "name": "Primus Public School Huskuru Road", "lat": "12.88838079", "lon": "77.69600803", "stop_dist": "0.00"}, {"id": "16098", "name": "Radhareddy Layout Road SJP Main Road", "lat": "12.90883603", "lon": "77.68970668", "stop_dist": "0.00"}, {"id": "405", "name": "Rajapalya", "lat": "12.99129818", "lon": "77.72117091", "stop_dist": "0.00"}, {"id": "142", "name": "Ramagondanahalli Varthur", "lat": "12.95689538", "lon": "77.73969932", "stop_dist": "0.00"}, {"id": "1748", "name": "Rampura", "lat": "13.05158203", "lon": "77.69118600", "stop_dist": "0.00"}, {"id": "9153", "name": "Sadaramangala", "lat": "12.99770266", "lon": "77.73664802", "stop_dist": "0.00"}, {"id": "2070", "name": "Safal Market", "lat": "13.03804851", "lon": "77.75993150", "stop_dist": "0.00"}, {"id": "6922", "name": "Sai Baba General Hospital", "lat": "12.97389787", "lon": "77.75057405", "stop_dist": "0.00"}, {"id": "2081", "name": "Sai Lakshmi Industries", "lat": "13.02447953", "lon": "77.76174941", "stop_dist": "0.00"}, {"id": "7064", "name": "Sannathammanahalli", "lat": "13.04790791", "lon": "77.76063502", "stop_dist": "0.00"}, {"id": "6911", "name": "SAP Labs White Field", "lat": "12.97763418", "lon": "77.71446348", "stop_dist": "0.00"}, {"id": "629", "name": "Sapthagiri Convention Hall Hoskote Road", "lat": "13.05030602", "lon": "77.75662613", "stop_dist": "0.00"}, {"id": "2046", "name": "Sathya Sai Baba Mandir", "lat": "13.00093071", "lon": "77.75757186", "stop_dist": "0.00"}, {"id": "2050", "name": "Sathya Sai Hospital", "lat": "12.98245540", "lon": "77.72780105", "stop_dist": "0.00"}, {"id": "9469", "name": "Seegehalli Gate Hope Form", "lat": "13.01323740", "lon": "77.76110239", "stop_dist": "0.00"}, {"id": "16031", "name": "Seegehalli Gate( Kadugodi)", "lat": "13.01343373", "lon": "77.76118118", "stop_dist": "0.00"}, {"id": "2088", "name": "Seegehalli Kadugodi", "lat": "13.01188920", "lon": "77.76467509", "stop_dist": "0.00"}, {"id": "8837", "name": "Seetharampalya Hoodi", "lat": "12.98509391", "lon": "77.71851361", "stop_dist": "0.00"}, {"id": "2084", "name": "Shell Petrol Bunk Khaji Sonnenahalli", "lat": "13.01761897", "lon": "77.76219562", "stop_dist": "0.00"}, {"id": "5410", "name": "Shrungarapura", "lat": "13.09956492", "lon": "77.74370738", "stop_dist": "0.00"}, {"id": "143", "name": "Siddapura Varthur", "lat": "12.95606013", "lon": "77.73072328", "stop_dist": "0.00"}, {"id": "2630", "name": "Singaiahnapalya Phoenix Mall", "lat": "12.99620607", "lon": "77.69374524", "stop_dist": "0.00"}, {"id": "5380", "name": "SKF Factory", "lat": "13.06125592", "lon": "77.74195582", "stop_dist": "0.00"}, {"id": "2101", "name": "Skylark Arcadia Sadaramangala", "lat": "13.00635750", "lon": "77.73560719", "stop_dist": "0.00"}, {"id": "931", "name": "Somasundarpalya", "lat": "12.89879995", "lon": "77.65129607", "stop_dist": "0.00"}, {"id": "1161", "name": "Sonnappanahalli Hosuru Bande", "lat": "13.10752013", "lon": "77.66578470", "stop_dist": "0.00"}, {"id": "3550", "name": "Sorahunse Varthur", "lat": "12.94330850", "lon": "77.75094155", "stop_dist": "0.00"}, {"id": "5515", "name": "Sri Rama Layout Avalahalli road", "lat": "13.03958289", "lon": "77.72956431", "stop_dist": "0.00"}, {"id": "14941", "name": "St Michael School Hennuru Bande ", "lat": "13.05125725", "lon": "77.64548242", "stop_dist": "0.00"}, {"id": "16345", "name": "ST PeterSchool Kaikondrahalli", "lat": "12.91392756", "lon": "77.67824293", "stop_dist": "0.00"}, {"id": "2131", "name": "Sulikunte Sarjapura Road", "lat": "12.89228812", "lon": "77.72843449", "stop_dist": "0.00"}, {"id": "934", "name": "SVR College Somasundarapalya", "lat": "12.90224713", "lon": "77.65057922", "stop_dist": "0.00"}, {"id": "15427", "name": "TATA ELEXI Limited ", "lat": "12.98488970", "lon": "77.74049230", "stop_dist": "0.00"}, {"id": "16117", "name": "TATA ELEXI LTD ITPL Road", "lat": "12.99009207", "lon": "77.72500455", "stop_dist": "0.00"}, {"id": "2431", "name": "Tavakkal Hospital", "lat": "13.10573967", "lon": "77.66466549", "stop_dist": "0.00"}, {"id": "2190", "name": "Thirumalashettyhalli Cross", "lat": "12.98595124", "lon": "77.78138976", "stop_dist": "0.00"}, {"id": "5416", "name": "Thirumenahalli Andrahalli", "lat": "13.11044634", "lon": "77.74516301", "stop_dist": "0.00"}, {"id": "135", "name": "Thubarahalli", "lat": "12.95573591", "lon": "77.72035565", "stop_dist": "0.00"}, {"id": "3418", "name": "Vagdevi Vilas School", "lat": "12.93226589", "lon": "77.76067693", "stop_dist": "0.00"}, {"id": "8775", "name": "Valepura Gate Varthur", "lat": "12.94894105", "lon": "77.77236700", "stop_dist": "0.00"}, {"id": "3539", "name": "Valepura Varthur", "lat": "12.94637584", "lon": "77.76680471", "stop_dist": "0.00"}, {"id": "6927", "name": "Varthur Forum Mall", "lat": "12.95986169", "lon": "77.74686992", "stop_dist": "0.00"}, {"id": "141", "name": "Varthur Kodi", "lat": "12.95696911", "lon": "77.74539676", "stop_dist": "0.00"}, {"id": "3420", "name": "Varthur Suryanagara Apartment", "lat": "12.93125920", "lon": "77.76264349", "stop_dist": "0.00"}, {"id": "6982", "name": "Varthuru Gunjur", "lat": "12.93810406", "lon": "77.74675056", "stop_dist": "0.00"}, {"id": "7015", "name": "Vijayanagara White Field", "lat": "12.97534979", "lon": "77.75467917", "stop_dist": "0.00"}, {"id": "2283", "name": "Vinayakanagara Gunjur", "lat": "12.92859375", "lon": "77.73947835", "stop_dist": "0.00"}, {"id": "1181", "name": "Visthar Dodda Gubbi", "lat": "13.06935696", "lon": "77.65926935", "stop_dist": "0.00"}, {"id": "8732", "name": "White Field Post Office", "lat": "12.96981779", "lon": "77.75016367", "stop_dist": "0.00"}, {"id": "9466", "name": "White Field TTMC", "lat": "12.97738718", "lon": "77.72693038", "stop_dist": "0.00"}, {"id": "7473", "name": "Whitefield ESI", "lat": "12.99075657", "lon": "77.70640612", "stop_dist": "0.00"}, {"id": "10980", "name": "Wipro Sarjapura Road", "lat": "12.91250665", "lon": "77.68418938", "stop_dist": "0.00"}, {"id": "9740", "name": "Yamalur", "lat": "12.94845117", "lon": "77.68072329", "stop_dist": "0.00"}, {"id": "148", "name": "Yamalur Cross", "lat": "12.95508381", "lon": "77.68799211", "stop_dist": "0.00"}, {"id": "5628", "name": "Yarappana Bande", "lat": "13.09286319", "lon": "77.68057108", "stop_dist": "0.00"}, {"id": "1725", "name": "Yarappanahalli Kada Agrahara", "lat": "13.08535189", "lon": "77.68715788", "stop_dist": "0.00"}, {"id": "9589", "name": "Yellappa Reddy House Panathur", "lat": "12.93816419", "lon": "77.71511793", "stop_dist": "0.00"}]