[{"id": "11815", "name": "Achappa Layout", "lat": "12.89166652", "lon": "77.58056760", "stop_dist": "0.00"}, {"id": "4644", "name": "AECS Dental College Hulimavu", "lat": "12.86521846", "lon": "77.59835601", "stop_dist": "0.00"}, {"id": "9200", "name": "AECS Layout", "lat": "12.88305649", "lon": "77.64990672", "stop_dist": "0.00"}, {"id": "770", "name": "Agara", "lat": "12.92453611", "lon": "77.65037150", "stop_dist": "0.00"}, {"id": "10950", "name": "Akshayanagara New Town Hulimavu", "lat": "12.87662950", "lon": "77.61077464", "stop_dist": "0.00"}, {"id": "1162", "name": "APR Kalyana Mantapa Begur Road", "lat": "12.89325102", "lon": "77.62584635", "stop_dist": "0.00"}, {"id": "86", "name": "Arakere Gate", "lat": "12.89059818", "lon": "77.59822328", "stop_dist": "0.00"}, {"id": "10872", "name": "Arakere Lakshmi Layout", "lat": "12.89124297", "lon": "77.59343885", "stop_dist": "0.00"}, {"id": "10879", "name": "Arakere Shiradi Sai Temple", "lat": "12.88302904", "lon": "77.61008129", "stop_dist": "0.00"}, {"id": "1246", "name": "Arakere Vijaya Bank Layout", "lat": "12.89225871", "lon": "77.61163581", "stop_dist": "0.00"}, {"id": "730", "name": "Bank Of Baroda Brigade Millenium", "lat": "12.89334326", "lon": "77.58630634", "stop_dist": "0.00"}, {"id": "2123", "name": "Bellanduru Gate SJP Road", "lat": "12.91857787", "lon": "77.66991416", "stop_dist": "0.00"}, {"id": "83", "name": "Bilekahalli", "lat": "12.90077134", "lon": "77.60110669", "stop_dist": "0.00"}, {"id": "2338", "name": "Birla Hurlur Road", "lat": "12.89406503", "lon": "77.65712101", "stop_dist": "0.00"}, {"id": "47", "name": "Bommanahalli", "lat": "12.90483622", "lon": "77.63007965", "stop_dist": "0.00"}, {"id": "87", "name": "BPL", "lat": "12.88738986", "lon": "77.59702001", "stop_dist": "0.00"}, {"id": "731", "name": "Brigade Millenium", "lat": "12.89258426", "lon": "77.58201744", "stop_dist": "0.00"}, {"id": "28", "name": "BTM Layout Kuvempunagara", "lat": "12.91635662", "lon": "77.61591532", "stop_dist": "0.00"}, {"id": "2340", "name": "BTR Garden", "lat": "12.89020884", "lon": "77.64661612", "stop_dist": "0.00"}, {"id": "10946", "name": "BTS Layout Arakere", "lat": "12.88667912", "lon": "77.60697059", "stop_dist": "0.00"}, {"id": "1166", "name": "Canara Bank Begur", "lat": "12.88517242", "lon": "77.62516617", "stop_dist": "0.00"}, {"id": "2241", "name": "Central Silk Board", "lat": "12.91747831", "lon": "77.62404046", "stop_dist": "0.00"}, {"id": "9648", "name": "Channakeshavanagara Parappana Agrahara", "lat": "12.87810424", "lon": "77.65481114", "stop_dist": "0.00"}, {"id": "9715", "name": "Chikka Beguru", "lat": "12.87873439", "lon": "77.63767451", "stop_dist": "0.00"}, {"id": "10954", "name": "CS-Ajmmera Green Acres Apartments BGT Road", "lat": "12.86791437", "lon": "77.59343684", "stop_dist": "0.00"}, {"id": "11480", "name": "CS-Classic Archid Apartment", "lat": "12.87277272", "lon": "77.58847475", "stop_dist": "0.00"}, {"id": "13465", "name": "CS-Jakkasandra(Towards:Dairy Circle)", "lat": "12.92454821", "lon": "77.63856500", "stop_dist": "0.00"}, {"id": "11241", "name": "CS-Mantri Elite Apartment", "lat": "12.90545032", "lon": "77.60096379", "stop_dist": "0.00"}, {"id": "11306", "name": "CS-Mantri Paradise Apartment", "lat": "12.88901268", "lon": "77.58863568", "stop_dist": "0.00"}, {"id": "11205", "name": "CS-Shopper Stop Mico Layout", "lat": "12.91191315", "lon": "77.59983659", "stop_dist": "0.00"}, {"id": "5175", "name": "Dalmia Circle", "lat": "12.90714711", "lon": "77.59510517", "stop_dist": "0.00"}, {"id": "15851", "name": "Dayanandasagara University Kudlu Gate", "lat": "12.88775506", "lon": "77.64151879", "stop_dist": "0.00"}, {"id": "1231", "name": "Deccan Bommanahalli", "lat": "12.90234650", "lon": "77.62732961", "stop_dist": "0.00"}, {"id": "10707", "name": "Deccan Hongasandra", "lat": "12.89572044", "lon": "77.62613900", "stop_dist": "0.00"}, {"id": "362", "name": "Depot-25 HSR Layout", "lat": "12.91967254", "lon": "77.64301614", "stop_dist": "0.00"}, {"id": "10794", "name": "Depot-34 Gate", "lat": "12.87017621", "lon": "77.58561417", "stop_dist": "0.00"}, {"id": "1247", "name": "Devarachikkanahalli", "lat": "12.88898572", "lon": "77.61555432", "stop_dist": "0.00"}, {"id": "12475", "name": "DLF Home Town Hulimavu", "lat": "12.87652493", "lon": "77.61777520", "stop_dist": "0.00"}, {"id": "4639", "name": "Double Road Hulimavu", "lat": "12.87849841", "lon": "77.60972522", "stop_dist": "0.00"}, {"id": "7190", "name": "DUO Heights Layout", "lat": "12.89486156", "lon": "77.61463232", "stop_dist": "0.00"}, {"id": "9406", "name": "Eshwara Layout", "lat": "12.89145603", "lon": "77.57562697", "stop_dist": "0.00"}, {"id": "1221", "name": "Galaxy Paradise Begur Road", "lat": "12.89148777", "lon": "77.62600453", "stop_dist": "0.00"}, {"id": "8709", "name": "Ganapathipura", "lat": "12.89326732", "lon": "77.57190272", "stop_dist": "0.00"}, {"id": "37", "name": "Garivebhavi Palya", "lat": "12.89618963", "lon": "77.63544064", "stop_dist": "0.00"}, {"id": "1250", "name": "Golden Park Apartment Kodichikkanahalli", "lat": "12.89472667", "lon": "77.62027500", "stop_dist": "0.00"}, {"id": "7292", "name": "Govt Hospital Arakere", "lat": "12.88723606", "lon": "77.60321416", "stop_dist": "0.00"}, {"id": "8629", "name": "Haraluru Cross Sarjapura Road", "lat": "12.91878436", "lon": "77.66879417", "stop_dist": "0.00"}, {"id": "2337", "name": "Haraluru Sarjapura Road", "lat": "12.90146259", "lon": "77.66040769", "stop_dist": "0.00"}, {"id": "1225", "name": "Hongasandra", "lat": "12.89713506", "lon": "77.62619229", "stop_dist": "0.00"}, {"id": "10887", "name": "Hongasandra MICO Layout", "lat": "12.88995751", "lon": "77.63033063", "stop_dist": "0.00"}, {"id": "41", "name": "Hosa Road", "lat": "12.87059695", "lon": "77.65295173", "stop_dist": "0.00"}, {"id": "10281", "name": "Hosapalya Kudlu Gate", "lat": "12.89730355", "lon": "77.64546901", "stop_dist": "0.00"}, {"id": "85", "name": "HSBC Bannerughatta Main Road", "lat": "12.89226171", "lon": "77.59883917", "stop_dist": "0.00"}, {"id": "5561", "name": "HSR Layout 14th Main", "lat": "12.91618767", "lon": "77.63493597", "stop_dist": "0.00"}, {"id": "12136", "name": "HSR Layout 17th Cross 5th Main", "lat": "12.91268246", "lon": "77.63246298", "stop_dist": "0.00"}, {"id": "12127", "name": "HSR Layout 22nd Cross", "lat": "12.90860857", "lon": "77.65179366", "stop_dist": "0.00"}, {"id": "10710", "name": "HSR Layout 2nd Sector", "lat": "12.91215567", "lon": "77.64481924", "stop_dist": "0.00"}, {"id": "11190", "name": "HSR Layout 5th Main", "lat": "12.91549028", "lon": "77.63236776", "stop_dist": "0.00"}, {"id": "11193", "name": "HSR Layout 7th Sector", "lat": "12.90956545", "lon": "77.63258301", "stop_dist": "0.00"}, {"id": "6975", "name": "HSR Layout Aishwarya Appartments", "lat": "12.90322149", "lon": "77.64867827", "stop_dist": "0.00"}, {"id": "12130", "name": "HSR Layout Balaji Appartment", "lat": "12.90497384", "lon": "77.64899410", "stop_dist": "0.00"}, {"id": "359", "name": "HSR Layout BDA Complex", "lat": "12.91270327", "lon": "77.63806830", "stop_dist": "0.00"}, {"id": "12134", "name": "HSR Layout Club", "lat": "12.90915041", "lon": "77.64455840", "stop_dist": "0.00"}, {"id": "10705", "name": "HSR Layout CPWD Quarters", "lat": "12.91413015", "lon": "77.65265733", "stop_dist": "0.00"}, {"id": "10709", "name": "HSR Layout KEB", "lat": "12.91190599", "lon": "77.64903501", "stop_dist": "0.00"}, {"id": "360", "name": "HSR Layout NIFT College", "lat": "12.91213667", "lon": "77.65196000", "stop_dist": "0.00"}, {"id": "10800", "name": "HSR Layout Petrol Bunk", "lat": "12.91961832", "lon": "77.65157439", "stop_dist": "0.00"}, {"id": "2227", "name": "HSR Layout SI Apartment", "lat": "12.91670010", "lon": "77.62928387", "stop_dist": "0.00"}, {"id": "4635", "name": "Hulimavu", "lat": "12.87734335", "lon": "77.60255903", "stop_dist": "0.00"}, {"id": "88", "name": "Hulimavu Gate", "lat": "12.88075471", "lon": "77.59590891", "stop_dist": "0.00"}, {"id": "10917", "name": "Hulimavu Sara Soul Factory", "lat": "12.87177582", "lon": "77.60209031", "stop_dist": "0.00"}, {"id": "5560", "name": "Ibbaluru Sarjapura Road", "lat": "12.92134441", "lon": "77.66195789", "stop_dist": "0.00"}, {"id": "84", "name": "IIMB Bannerghatta Road", "lat": "12.89607230", "lon": "77.59976967", "stop_dist": "0.00"}, {"id": "10095", "name": "Iliyas Nagara", "lat": "12.90862033", "lon": "77.57042617", "stop_dist": "0.00"}, {"id": "1159", "name": "International School of Management Bommanahalli", "lat": "12.89852563", "lon": "77.62651015", "stop_dist": "0.00"}, {"id": "11204", "name": "ITI Layout Hosapalya Main Road", "lat": "12.89962264", "lon": "77.64879763", "stop_dist": "0.00"}, {"id": "1426", "name": "Jai Bheemanagara", "lat": "12.91941360", "lon": "77.61571799", "stop_dist": "0.00"}, {"id": "3635", "name": "Jakkasandra Sarjapura Road", "lat": "12.92476493", "lon": "77.63816401", "stop_dist": "0.00"}, {"id": "712", "name": "Jaraganahalli Cross", "lat": "12.90156673", "lon": "77.57328574", "stop_dist": "0.00"}, {"id": "2597", "name": "Jn of Sarjapura", "lat": "12.92092954", "lon": "77.66603753", "stop_dist": "0.00"}, {"id": "768", "name": "JP Nagara 15th Cross", "lat": "12.90714918", "lon": "77.58563153", "stop_dist": "0.00"}, {"id": "81", "name": "JP Nagara 3rd Phase", "lat": "12.90816990", "lon": "77.60041709", "stop_dist": "0.00"}, {"id": "710", "name": "JP Nagara 4th Phase", "lat": "12.90624011", "lon": "77.59451897", "stop_dist": "0.00"}, {"id": "716", "name": "JP Nagara 5th Phase", "lat": "12.90643060", "lon": "77.59046400", "stop_dist": "0.00"}, {"id": "648", "name": "JP Nagara 6th Phase", "lat": "12.90655206", "lon": "77.57763641", "stop_dist": "0.00"}, {"id": "11421", "name": "Kalyani Magnum JP Nagara", "lat": "12.90177046", "lon": "77.59494625", "stop_dist": "0.00"}, {"id": "1276", "name": "Kaverinagara Bommanahalli", "lat": "12.90014833", "lon": "77.62238000", "stop_dist": "0.00"}, {"id": "1274", "name": "Kodichikkanahalli Beguru", "lat": "12.89792667", "lon": "77.62150833", "stop_dist": "0.00"}, {"id": "758", "name": "Kothanuru Dinne Ganesha Temple", "lat": "12.87743730", "lon": "77.58388831", "stop_dist": "0.00"}, {"id": "38", "name": "Kudlu Gate", "lat": "12.88965654", "lon": "77.63948598", "stop_dist": "0.00"}, {"id": "7164", "name": "Kudlu Panchayath Office", "lat": "12.88967289", "lon": "77.64892772", "stop_dist": "0.00"}, {"id": "16301", "name": "Land T South City", "lat": "12.88829106", "lon": "77.59040499", "stop_dist": "0.00"}, {"id": "90", "name": "Loyola school", "lat": "12.87099571", "lon": "77.59353650", "stop_dist": "0.00"}, {"id": "15478", "name": "Loyola School Bannerughatta Road", "lat": "12.87110742", "lon": "77.59348344", "stop_dist": "0.00"}, {"id": "50", "name": "Madivala", "lat": "12.92008333", "lon": "77.62066167", "stop_dist": "0.00"}, {"id": "9410", "name": "Mahadeshwara Nagara BTM Layout", "lat": "12.90779191", "lon": "77.61094093", "stop_dist": "0.00"}, {"id": "10298", "name": "Mangammanapalya", "lat": "12.90724645", "lon": "77.63504595", "stop_dist": "0.00"}, {"id": "89", "name": "Meenakshi Temple", "lat": "12.87470152", "lon": "77.59482719", "stop_dist": "0.00"}, {"id": "4144", "name": "Metro Market Kanakapura Road", "lat": "12.89316223", "lon": "77.56762862", "stop_dist": "0.00"}, {"id": "7185", "name": "MICO Shramajeevi Colony Arakere", "lat": "12.88955655", "lon": "77.59384990", "stop_dist": "0.00"}, {"id": "2345", "name": "New MICO Gate", "lat": "12.87029071", "lon": "77.65830383", "stop_dist": "0.00"}, {"id": "5065", "name": "Nobo Nagara Hulimavu", "lat": "12.86818436", "lon": "77.59781353", "stop_dist": "0.00"}, {"id": "5069", "name": "NS Palya JP Nagara", "lat": "12.90862426", "lon": "77.60331608", "stop_dist": "0.00"}, {"id": "4642", "name": "Nyanappanahalli", "lat": "12.87908999", "lon": "77.61401206", "stop_dist": "0.00"}, {"id": "1282", "name": "Nyanappanahalli Cross", "lat": "12.90356123", "lon": "77.62720465", "stop_dist": "0.00"}, {"id": "7188", "name": "Oxford College", "lat": "12.90512352", "lon": "77.58577108", "stop_dist": "0.00"}, {"id": "1157", "name": "Oxford College Bommanahalli", "lat": "12.90105428", "lon": "77.62712860", "stop_dist": "0.00"}, {"id": "10877", "name": "Panduranga Nagara JP nagara 4th Phase", "lat": "12.89541584", "lon": "77.59613648", "stop_dist": "0.00"}, {"id": "2334", "name": "Parangipalya", "lat": "12.90910175", "lon": "77.64930355", "stop_dist": "0.00"}, {"id": "5525", "name": "Parappana Agrahara", "lat": "12.88102488", "lon": "77.65776560", "stop_dist": "0.00"}, {"id": "15639", "name": "Petrol Bunk Bellanduru", "lat": "12.92342930", "lon": "77.67067105", "stop_dist": "0.00"}, {"id": "764", "name": "Puttenahalli JP Nagara", "lat": "12.89815656", "lon": "77.58255518", "stop_dist": "0.00"}, {"id": "763", "name": "Puttenahallipalya", "lat": "12.89563317", "lon": "77.58183449", "stop_dist": "0.00"}, {"id": "1262", "name": "Rama Temple Devarachikkanahalli", "lat": "12.88821460", "lon": "77.61921198", "stop_dist": "0.00"}, {"id": "732", "name": "RBI Layout JP Nagara", "lat": "12.88786948", "lon": "77.58197376", "stop_dist": "0.00"}, {"id": "728", "name": "Royal School JP nagara", "lat": "12.90042919", "lon": "77.58582176", "stop_dist": "0.00"}, {"id": "48", "name": "Rupena Agrahara", "lat": "12.91168823", "lon": "77.62586568", "stop_dist": "0.00"}, {"id": "5084", "name": "Sarakki", "lat": "12.90942689", "lon": "77.57284284", "stop_dist": "0.00"}, {"id": "1267", "name": "Shanbhogappa Layout", "lat": "12.89772333", "lon": "77.61094333", "stop_dist": "0.00"}, {"id": "4637", "name": "Shanthiniketan Layout Arakere", "lat": "12.88281334", "lon": "77.60349780", "stop_dist": "0.00"}, {"id": "11269", "name": "Shantinikethan School Bilekahalli", "lat": "12.89982133", "lon": "77.60228209", "stop_dist": "0.00"}, {"id": "10931", "name": "Shobha Tulips JP Nagara", "lat": "12.89825784", "lon": "77.58541167", "stop_dist": "0.00"}, {"id": "40", "name": "Singasandra", "lat": "12.87874432", "lon": "77.64647488", "stop_dist": "0.00"}, {"id": "931", "name": "Somasundarpalya", "lat": "12.89879995", "lon": "77.65129607", "stop_dist": "0.00"}, {"id": "1299", "name": "Sri Veerabhadra Swamy Bilekahalli", "lat": "12.89768167", "lon": "77.60647333", "stop_dist": "0.00"}, {"id": "1165", "name": "St Francis School Begur Road", "lat": "12.88891906", "lon": "77.62562409", "stop_dist": "0.00"}, {"id": "9702", "name": "Subhashnagara Beguru", "lat": "12.87082992", "lon": "77.63833165", "stop_dist": "0.00"}, {"id": "934", "name": "SVR College Somasundarapalya", "lat": "12.90224713", "lon": "77.65057922", "stop_dist": "0.00"}, {"id": "5070", "name": "Vijaya Bank Colony Ayyappa Temple", "lat": "12.89124559", "lon": "77.60627121", "stop_dist": "0.00"}, {"id": "5079", "name": "Vinayakanagara JP Nagara", "lat": "12.89937687", "lon": "77.59140640", "stop_dist": "0.00"}, {"id": "1237", "name": "Viratnagara Cross Bommanahalli", "lat": "12.90300690", "lon": "77.62420228", "stop_dist": "0.00"}, {"id": "757", "name": "Water Tank Kothanur Dinne", "lat": "12.87442454", "lon": "77.58409085", "stop_dist": "0.00"}, {"id": "357", "name": "Yelachenahalli", "lat": "12.89760334", "lon": "77.57147635", "stop_dist": "0.00"}, {"id": "7073", "name": "Yelenahalli Beguru", "lat": "12.86655531", "lon": "77.61629797", "stop_dist": "0.00"}, {"id": "10690", "name": "Yellukunte", "lat": "12.90548561", "lon": "77.64128208", "stop_dist": "0.00"}]